{"data":{"bikes":[{"lon":-121.88235683333333,"rental_uris":{"android":"https://sfo.lft.to/lastmile_qr_scan","ios":"https://sfo.lft.to/lastmile_qr_scan"},"is_disabled":0,"lat":37.3423025,"is_reserved":0,"name":"b396c5809a05cad12994a0410be1b3c1","bike_id":"b396c5809a05cad12994a0410be1b3c1","type":"electric_bike"},{"lon":-121.92181466666666,"rental_uris":{"android":"https://sfo.lft.to/lastmile_qr_scan","ios":"https://sfo.lft.to/lastmile_qr_scan"},"is_disabled":0,"lat":37.344299,"is_reserved":0,"name":"2375c9bd46af8ea23090ab794e1e43ef","bike_id":"2375c9bd46af8ea23090ab794e1e43ef","type":"electric_bike"},{"lon":-121.82915633333333,"rental_uris":{"android":"https://sfo.lft.to/lastmile_qr_scan","ios":"https://sfo.lft.to/lastmile_qr_scan"},"is_disabled":0,"lat":37.32552916666667,"is_reserved":0,"name":"7936925e9fdf0b910cb8c7c5d3ee7034","bike_id":"7936925e9fdf0b910cb8c7c5d3ee7034","type":"electric_bike"},{"lon":-121.87771116666667,"rental_uris":{"android":"https://sfo.lft.to/lastmile_qr_scan","ios":"https://sfo.lft.to/lastmile_qr_scan"},"is_disabled":0,"lat":37.32063216666667,"is_reserved":0,"name":"7b59628c929fcab62017e0e6a57e0b14","bike_id":"7b59628c929fcab62017e0e6a57e0b14","type":"electric_bike"},{"lon":-121.89522516666666,"rental_uris":{"android":"https://sfo.lft.to/lastmile_qr_scan","ios":"https://sfo.lft.to/lastmile_qr_scan"},"is_disabled":0,"lat":37.3413425,"is_reserved":0,"name":"176cc682d826aabc4d8b83aa0053ccc3","bike_id":"176cc682d826aabc4d8b83aa0053ccc3","type":"electric_bike"},{"lon":-121.9043175,"rental_uris":{"android":"https://sfo.lft.to/lastmile_qr_scan","ios":"https://sfo.lft.to/lastmile_qr_scan"},"is_disabled":0,"lat":37.325224666666664,"is_reserved":0,"name":"729175742e451f25094264943ce99278","bike_id":"729175742e451f25094264943ce99278","type":"electric_bike"},{"lon":-121.91024416666667,"rental_uris":{"android":"https://sfo.lft.to/lastmile_qr_scan","ios":"https://sfo.lft.to/lastmile_qr_scan"},"is_disabled":0,"lat":37.337606,"is_reserved":0,"name":"001bb48ac5d9fc53c9bc04d50f812e96","bike_id":"001bb48ac5d9fc53c9bc04d50f812e96","type":"electric_bike"},{"lon":-121.90436366666667,"rental_uris":{"android":"https://sfo.lft.to/lastmile_qr_scan","ios":"https://sfo.lft.to/lastmile_qr_scan"},"is_disabled":0,"lat":37.32716883333333,"is_reserved":0,"name":"bb6c2e91e09d0d2304ff48eccfa47c8c","bike_id":"bb6c2e91e09d0d2304ff48eccfa47c8c","type":"electric_bike"},{"lon":-121.93976366666666,"rental_uris":{"android":"https://sfo.lft.to/lastmile_qr_scan","ios":"https://sfo.lft.to/lastmile_qr_scan"},"is_disabled":0,"lat":37.32582216666667,"is_reserved":0,"name":"562bf6ecf4f5cbeff4ea5a5f65987256","bike_id":"562bf6ecf4f5cbeff4ea5a5f65987256","type":"electric_bike"},{"lon":-121.934801,"rental_uris":{"android":"https://sfo.lft.to/lastmile_qr_scan","ios":"https://sfo.lft.to/lastmile_qr_scan"},"is_disabled":0,"lat":37.32531683333333,"is_reserved":0,"name":"3354e2c1fffb01235d02dc09b3f19690","bike_id":"3354e2c1fffb01235d02dc09b3f19690","type":"electric_bike"},{"lon":-121.8920895,"rental_uris":{"android":"https://sfo.lft.to/lastmile_qr_scan","ios":"https://sfo.lft.to/lastmile_qr_scan"},"is_disabled":0,"lat":37.35533933333333,"is_reserved":0,"name":"edc44217549607816655ec9039a21171","bike_id":"edc44217549607816655ec9039a21171","type":"electric_bike"},{"lon":-121.83800133333334,"rental_uris":{"android":"https://sfo.lft.to/lastmile_qr_scan","ios":"https://sfo.lft.to/lastmile_qr_scan"},"is_disabled":0,"lat":37.2822415,"is_reserved":0,"name":"5fbcd913d439406e9162bb30b862e54a","bike_id":"5fbcd913d439406e9162bb30b862e54a","type":"electric_bike"},{"lon":-121.86024883333333,"rental_uris":{"android":"https://sfo.lft.to/lastmile_qr_scan","ios":"https://sfo.lft.to/lastmile_qr_scan"},"is_disabled":0,"lat":37.342673,"is_reserved":0,"name":"470fe3f7b114d4a4872973db429e0131","bike_id":"470fe3f7b114d4a4872973db429e0131","type":"electric_bike"},{"lon":-121.88488616666666,"rental_uris":{"android":"https://sfo.lft.to/lastmile_qr_scan","ios":"https://sfo.lft.to/lastmile_qr_scan"},"is_disabled":0,"lat":37.3171775,"is_reserved":0,"name":"d3474802d6bb16c6ffe9be87cfddf592","bike_id":"d3474802d6bb16c6ffe9be87cfddf592","type":"electric_bike"},{"lon":-121.92150516666666,"rental_uris":{"android":"https://sfo.lft.to/lastmile_qr_scan","ios":"https://sfo.lft.to/lastmile_qr_scan"},"is_disabled":0,"lat":37.340345166666665,"is_reserved":0,"name":"5d7842172698eaa304fc052f8b9e1506","bike_id":"5d7842172698eaa304fc052f8b9e1506","type":"electric_bike"},{"lon":-121.84483866666666,"rental_uris":{"android":"https://sfo.lft.to/lastmile_qr_scan","ios":"https://sfo.lft.to/lastmile_qr_scan"},"is_disabled":0,"lat":37.316857,"is_reserved":0,"name":"71db93e03fdd51369353cf4d6519cfbc","bike_id":"71db93e03fdd51369353cf4d6519cfbc","type":"electric_bike"},{"lon":-121.91748,"rental_uris":{"android":"https://sfo.lft.to/lastmile_qr_scan","ios":"https://sfo.lft.to/lastmile_qr_scan"},"is_disabled":0,"lat":37.3273055,"is_reserved":0,"name":"5ad00c0e35b311c2be1e7d7fb8e23a6c","bike_id":"5ad00c0e35b311c2be1e7d7fb8e23a6c","type":"electric_bike"},{"lon":-121.83141216666667,"rental_uris":{"android":"https://sfo.lft.to/lastmile_qr_scan","ios":"https://sfo.lft.to/lastmile_qr_scan"},"is_disabled":0,"lat":37.358187666666666,"is_reserved":0,"name":"656f1666fed72d0db5f814c74a7c7609","bike_id":"656f1666fed72d0db5f814c74a7c7609","type":"electric_bike"},{"lon":-121.88474566666666,"rental_uris":{"android":"https://sfo.lft.to/lastmile_qr_scan","ios":"https://sfo.lft.to/lastmile_qr_scan"},"is_disabled":0,"lat":37.345418,"is_reserved":0,"name":"6dfe8d55374776e49b223c585d07f671","bike_id":"6dfe8d55374776e49b223c585d07f671","type":"electric_bike"},{"lon":-121.87650316666667,"rental_uris":{"android":"https://sfo.lft.to/lastmile_qr_scan","ios":"https://sfo.lft.to/lastmile_qr_scan"},"is_disabled":0,"lat":37.297049666666666,"is_reserved":0,"name":"c31c99bb2cfd614668045b9ef29c5eac","bike_id":"c31c99bb2cfd614668045b9ef29c5eac","type":"electric_bike"},{"lon":-121.869477,"rental_uris":{"android":"https://sfo.lft.to/lastmile_qr_scan","ios":"https://sfo.lft.to/lastmile_qr_scan"},"is_disabled":0,"lat":37.362865666666664,"is_reserved":0,"name":"e44294c4ad3c4d621a2013c61630ecfe","bike_id":"e44294c4ad3c4d621a2013c61630ecfe","type":"electric_bike"},{"lon":-121.90682816666667,"rental_uris":{"android":"https://sfo.lft.to/lastmile_qr_scan","ios":"https://sfo.lft.to/lastmile_qr_scan"},"is_disabled":0,"lat":37.33972633333333,"is_reserved":0,"name":"4c1fde72c87059217ead1d0793adcdd8","bike_id":"4c1fde72c87059217ead1d0793adcdd8","type":"electric_bike"},{"lon":-121.89160966666667,"rental_uris":{"android":"https://sfo.lft.to/lastmile_qr_scan","ios":"https://sfo.lft.to/lastmile_qr_scan"},"is_disabled":0,"lat":37.335631166666666,"is_reserved":0,"name":"bd7c47d1f3b0d32f1d05dc5c09a96def","bike_id":"bd7c47d1f3b0d32f1d05dc5c09a96def","type":"electric_bike"},{"lon":-121.875637,"rental_uris":{"android":"https://sfo.lft.to/lastmile_qr_scan","ios":"https://sfo.lft.to/lastmile_qr_scan"},"is_disabled":0,"lat":37.340743333333336,"is_reserved":0,"name":"e6f1b0cc0711560328edaeb3165e212a","bike_id":"e6f1b0cc0711560328edaeb3165e212a","type":"electric_bike"},{"lon":-121.94920816666666,"rental_uris":{"android":"https://sfo.lft.to/lastmile_qr_scan","ios":"https://sfo.lft.to/lastmile_qr_scan"},"is_disabled":0,"lat":37.3241485,"is_reserved":0,"name":"abf057fbb82e0d42bbf407a41d10f410","bike_id":"abf057fbb82e0d42bbf407a41d10f410","type":"electric_bike"},{"lon":-121.88616816666666,"rental_uris":{"android":"https://sfo.lft.to/lastmile_qr_scan","ios":"https://sfo.lft.to/lastmile_qr_scan"},"is_disabled":0,"lat":37.349655166666665,"is_reserved":0,"name":"ae9554d0a17a51bf19913279588d2e26","bike_id":"ae9554d0a17a51bf19913279588d2e26","type":"electric_bike"},{"lon":-121.878628,"rental_uris":{"android":"https://sfo.lft.to/lastmile_qr_scan","ios":"https://sfo.lft.to/lastmile_qr_scan"},"is_disabled":0,"lat":37.3596155,"is_reserved":0,"name":"74bd546037d04e45a6d14761175d32a6","bike_id":"74bd546037d04e45a6d14761175d32a6","type":"electric_bike"},{"lon":-121.90863266666666,"rental_uris":{"android":"https://sfo.lft.to/lastmile_qr_scan","ios":"https://sfo.lft.to/lastmile_qr_scan"},"is_disabled":0,"lat":37.34201983333333,"is_reserved":0,"name":"7e441ca560609e3f9af6bfdb91a3a6ff","bike_id":"7e441ca560609e3f9af6bfdb91a3a6ff","type":"electric_bike"},{"lon":-121.83998833333334,"rental_uris":{"android":"https://sfo.lft.to/lastmile_qr_scan","ios":"https://sfo.lft.to/lastmile_qr_scan"},"is_disabled":0,"lat":37.35466816666667,"is_reserved":0,"name":"c9501074c9461cf48f195e9d439a9854","bike_id":"c9501074c9461cf48f195e9d439a9854","type":"electric_bike"},{"lon":-121.937391,"rental_uris":{"android":"https://sfo.lft.to/lastmile_qr_scan","ios":"https://sfo.lft.to/lastmile_qr_scan"},"is_disabled":0,"lat":37.3806165,"is_reserved":0,"name":"7c10eb711d06f3cc9683b5f4c9fd5aff","bike_id":"7c10eb711d06f3cc9683b5f4c9fd5aff","type":"electric_bike"},{"lon":-121.91065016666667,"rental_uris":{"android":"https://sfo.lft.to/lastmile_qr_scan","ios":"https://sfo.lft.to/lastmile_qr_scan"},"is_disabled":0,"lat":37.36444266666667,"is_reserved":0,"name":"39cc1643ee9cf33dfbeb5712c2f1b6c0","bike_id":"39cc1643ee9cf33dfbeb5712c2f1b6c0","type":"electric_bike"},{"lon":-121.856559,"rental_uris":{"android":"https://sfo.lft.to/lastmile_qr_scan","ios":"https://sfo.lft.to/lastmile_qr_scan"},"is_disabled":0,"lat":37.318708666666666,"is_reserved":0,"name":"e7c722bfb58b541d114f2a1c2491d5d0","bike_id":"e7c722bfb58b541d114f2a1c2491d5d0","type":"electric_bike"},{"lon":-121.89890816666667,"rental_uris":{"android":"https://sfo.lft.to/lastmile_qr_scan","ios":"https://sfo.lft.to/lastmile_qr_scan"},"is_disabled":0,"lat":37.33522883333333,"is_reserved":0,"name":"799c7cc32390be11b941188c335feffb","bike_id":"799c7cc32390be11b941188c335feffb","type":"electric_bike"},{"lon":-121.8980045,"rental_uris":{"android":"https://sfo.lft.to/lastmile_qr_scan","ios":"https://sfo.lft.to/lastmile_qr_scan"},"is_disabled":0,"lat":37.3140175,"is_reserved":0,"name":"4ef35989fadd8b86341f018e2b39af96","bike_id":"4ef35989fadd8b86341f018e2b39af96","type":"electric_bike"},{"lon":-121.830255,"rental_uris":{"android":"https://sfo.lft.to/lastmile_qr_scan","ios":"https://sfo.lft.to/lastmile_qr_scan"},"is_disabled":0,"lat":37.287008166666666,"is_reserved":0,"name":"df424a7281a1d2bfe0c72af0b1288cfa","bike_id":"df424a7281a1d2bfe0c72af0b1288cfa","type":"electric_bike"},{"lon":-121.91516383333334,"rental_uris":{"android":"https://sfo.lft.to/lastmile_qr_scan","ios":"https://sfo.lft.to/lastmile_qr_scan"},"is_disabled":0,"lat":37.368407,"is_reserved":0,"name":"4da068bb9be29a9ab7386745cd1ae532","bike_id":"4da068bb9be29a9ab7386745cd1ae532","type":"electric_bike"},{"lon":-121.9050465,"rental_uris":{"android":"https://sfo.lft.to/lastmile_qr_scan","ios":"https://sfo.lft.to/lastmile_qr_scan"},"is_disabled":0,"lat":37.331958666666665,"is_reserved":0,"name":"4d6e2fcabddbe0a57535057eb59fc2fa","bike_id":"4d6e2fcabddbe0a57535057eb59fc2fa","type":"electric_bike"},{"lon":-121.888619,"rental_uris":{"android":"https://sfo.lft.to/lastmile_qr_scan","ios":"https://sfo.lft.to/lastmile_qr_scan"},"is_disabled":0,"lat":37.3353505,"is_reserved":0,"name":"8b67a9aff957b925424d6efa712244f8","bike_id":"8b67a9aff957b925424d6efa712244f8","type":"electric_bike"},{"lon":-121.8797345,"rental_uris":{"android":"https://sfo.lft.to/lastmile_qr_scan","ios":"https://sfo.lft.to/lastmile_qr_scan"},"is_disabled":0,"lat":37.3478265,"is_reserved":0,"name":"308897c7baf650ffd2f42325d3106df3","bike_id":"308897c7baf650ffd2f42325d3106df3","type":"electric_bike"},{"lon":-121.90966283333333,"rental_uris":{"android":"https://sfo.lft.to/lastmile_qr_scan","ios":"https://sfo.lft.to/lastmile_qr_scan"},"is_disabled":0,"lat":37.3620765,"is_reserved":0,"name":"a45adb41e432b9dc1f35c4219a1fd235","bike_id":"a45adb41e432b9dc1f35c4219a1fd235","type":"electric_bike"},{"lon":-121.8844095,"rental_uris":{"android":"https://sfo.lft.to/lastmile_qr_scan","ios":"https://sfo.lft.to/lastmile_qr_scan"},"is_disabled":0,"lat":37.33345166666667,"is_reserved":0,"name":"7a0152140b2d3b7c3cbe0cc6b9934035","bike_id":"7a0152140b2d3b7c3cbe0cc6b9934035","type":"electric_bike"},{"lon":-121.87367083333334,"rental_uris":{"android":"https://sfo.lft.to/lastmile_qr_scan","ios":"https://sfo.lft.to/lastmile_qr_scan"},"is_disabled":0,"lat":37.33199883333333,"is_reserved":0,"name":"15ee9cf29581697b97e2824df04e04fa","bike_id":"15ee9cf29581697b97e2824df04e04fa","type":"electric_bike"},{"lon":-121.94196216666667,"rental_uris":{"android":"https://sfo.lft.to/lastmile_qr_scan","ios":"https://sfo.lft.to/lastmile_qr_scan"},"is_disabled":0,"lat":37.401142666666665,"is_reserved":0,"name":"33d28fc7f61fb385a634e9c4fc60ceda","bike_id":"33d28fc7f61fb385a634e9c4fc60ceda","type":"electric_bike"},{"lon":-121.89424983333333,"rental_uris":{"android":"https://sfo.lft.to/lastmile_qr_scan","ios":"https://sfo.lft.to/lastmile_qr_scan"},"is_disabled":0,"lat":37.360752833333336,"is_reserved":0,"name":"5e14b075a6bd08a0b53612bae6e943c4","bike_id":"5e14b075a6bd08a0b53612bae6e943c4","type":"electric_bike"},{"lon":-121.89392583333333,"rental_uris":{"android":"https://sfo.lft.to/lastmile_qr_scan","ios":"https://sfo.lft.to/lastmile_qr_scan"},"is_disabled":0,"lat":37.32165216666667,"is_reserved":0,"name":"023fc89e9551cd4e4df30112dad281de","bike_id":"023fc89e9551cd4e4df30112dad281de","type":"electric_bike"},{"lon":-121.90812133333333,"rental_uris":{"android":"https://sfo.lft.to/lastmile_qr_scan","ios":"https://sfo.lft.to/lastmile_qr_scan"},"is_disabled":0,"lat":37.36074516666667,"is_reserved":0,"name":"c74b5361f924f3f23eab8e89c02f61ef","bike_id":"c74b5361f924f3f23eab8e89c02f61ef","type":"electric_bike"},{"lon":-121.92159316666667,"rental_uris":{"android":"https://sfo.lft.to/lastmile_qr_scan","ios":"https://sfo.lft.to/lastmile_qr_scan"},"is_disabled":0,"lat":37.317409166666664,"is_reserved":0,"name":"577de153ea8c2374f3f0eb22b8ed5bf6","bike_id":"577de153ea8c2374f3f0eb22b8ed5bf6","type":"electric_bike"},{"lon":-121.94968133333333,"rental_uris":{"android":"https://sfo.lft.to/lastmile_qr_scan","ios":"https://sfo.lft.to/lastmile_qr_scan"},"is_disabled":0,"lat":37.3018345,"is_reserved":0,"name":"2a5e5d52714748db6dc6fb6b865494a7","bike_id":"2a5e5d52714748db6dc6fb6b865494a7","type":"electric_bike"},{"lon":-121.87741983333333,"rental_uris":{"android":"https://sfo.lft.to/lastmile_qr_scan","ios":"https://sfo.lft.to/lastmile_qr_scan"},"is_disabled":0,"lat":37.3428075,"is_reserved":0,"name":"d82c55dee93a7eb70bac41a73ad90165","bike_id":"d82c55dee93a7eb70bac41a73ad90165","type":"electric_bike"},{"lon":-121.88976683333334,"rental_uris":{"android":"https://sfo.lft.to/lastmile_qr_scan","ios":"https://sfo.lft.to/lastmile_qr_scan"},"is_disabled":0,"lat":37.3525745,"is_reserved":0,"name":"a1f19e465e1bcd2a06496db7ee9c3c6f","bike_id":"a1f19e465e1bcd2a06496db7ee9c3c6f","type":"electric_bike"},{"lon":-121.93153316666667,"rental_uris":{"android":"https://sfo.lft.to/lastmile_qr_scan","ios":"https://sfo.lft.to/lastmile_qr_scan"},"is_disabled":0,"lat":37.404781,"is_reserved":0,"name":"fc4a58dfc5dcf75b5c2e9510b74915dd","bike_id":"fc4a58dfc5dcf75b5c2e9510b74915dd","type":"electric_bike"},{"lon":-121.87979566666667,"rental_uris":{"android":"https://sfo.lft.to/lastmile_qr_scan","ios":"https://sfo.lft.to/lastmile_qr_scan"},"is_disabled":0,"lat":37.34784916666667,"is_reserved":0,"name":"9caece1e2c64fb1b42a95304026da438","bike_id":"9caece1e2c64fb1b42a95304026da438","type":"electric_bike"},{"lon":-121.89452316666667,"rental_uris":{"android":"https://sfo.lft.to/lastmile_qr_scan","ios":"https://sfo.lft.to/lastmile_qr_scan"},"is_disabled":0,"lat":37.34029,"is_reserved":0,"name":"c6adc6fcdb6774b22f59372dd20e9aba","bike_id":"c6adc6fcdb6774b22f59372dd20e9aba","type":"electric_bike"},{"lon":-121.879706,"rental_uris":{"android":"https://sfo.lft.to/lastmile_qr_scan","ios":"https://sfo.lft.to/lastmile_qr_scan"},"is_disabled":0,"lat":37.33243183333333,"is_reserved":0,"name":"a810cbd6ec886d9f6971ed22d9237eb0","bike_id":"a810cbd6ec886d9f6971ed22d9237eb0","type":"electric_bike"},{"lon":-121.86047083333334,"rental_uris":{"android":"https://sfo.lft.to/lastmile_qr_scan","ios":"https://sfo.lft.to/lastmile_qr_scan"},"is_disabled":0,"lat":37.342516,"is_reserved":0,"name":"52a66ee4248c689f3819802788f2ea11","bike_id":"52a66ee4248c689f3819802788f2ea11","type":"electric_bike"},{"lon":-121.88763683333333,"rental_uris":{"android":"https://sfo.lft.to/lastmile_qr_scan","ios":"https://sfo.lft.to/lastmile_qr_scan"},"is_disabled":0,"lat":37.30964483333333,"is_reserved":0,"name":"3f8f14e442ade81907351102f65b06cb","bike_id":"3f8f14e442ade81907351102f65b06cb","type":"electric_bike"},{"lon":-121.89509366666667,"rental_uris":{"android":"https://sfo.lft.to/lastmile_qr_scan","ios":"https://sfo.lft.to/lastmile_qr_scan"},"is_disabled":0,"lat":37.336108333333335,"is_reserved":0,"name":"7653bbb33e6ee53fbca8144f024b3e3b","bike_id":"7653bbb33e6ee53fbca8144f024b3e3b","type":"electric_bike"},{"lon":-121.91394816666667,"rental_uris":{"android":"https://sfo.lft.to/lastmile_qr_scan","ios":"https://sfo.lft.to/lastmile_qr_scan"},"is_disabled":0,"lat":37.32805166666667,"is_reserved":0,"name":"95c38f66a1e11bd8f70bafe4f6175871","bike_id":"95c38f66a1e11bd8f70bafe4f6175871","type":"electric_bike"},{"lon":-121.88643666666667,"rental_uris":{"android":"https://sfo.lft.to/lastmile_qr_scan","ios":"https://sfo.lft.to/lastmile_qr_scan"},"is_disabled":0,"lat":37.324665333333336,"is_reserved":0,"name":"d27f379a42de484038f9cce4d786032d","bike_id":"d27f379a42de484038f9cce4d786032d","type":"electric_bike"},{"lon":-121.94138933333333,"rental_uris":{"android":"https://sfo.lft.to/lastmile_qr_scan","ios":"https://sfo.lft.to/lastmile_qr_scan"},"is_disabled":0,"lat":37.41256833333333,"is_reserved":0,"name":"aff609260f4dfa86526ca42047a9e369","bike_id":"aff609260f4dfa86526ca42047a9e369","type":"electric_bike"},{"lon":-121.84418866666667,"rental_uris":{"android":"https://sfo.lft.to/lastmile_qr_scan","ios":"https://sfo.lft.to/lastmile_qr_scan"},"is_disabled":0,"lat":37.33572483333333,"is_reserved":0,"name":"9f4d9689bc8d52ce5b7f317ab3539081","bike_id":"9f4d9689bc8d52ce5b7f317ab3539081","type":"electric_bike"},{"lon":-121.92799733333334,"rental_uris":{"android":"https://sfo.lft.to/lastmile_qr_scan","ios":"https://sfo.lft.to/lastmile_qr_scan"},"is_disabled":0,"lat":37.2949975,"is_reserved":0,"name":"09a593bf2e8878254fde847f82090c62","bike_id":"09a593bf2e8878254fde847f82090c62","type":"electric_bike"},{"lon":-121.87687283333334,"rental_uris":{"android":"https://sfo.lft.to/lastmile_qr_scan","ios":"https://sfo.lft.to/lastmile_qr_scan"},"is_disabled":0,"lat":37.3201415,"is_reserved":0,"name":"a0a1372b80d6852db7487595f4f0b895","bike_id":"a0a1372b80d6852db7487595f4f0b895","type":"electric_bike"},{"lon":-121.9469565,"rental_uris":{"android":"https://sfo.lft.to/lastmile_qr_scan","ios":"https://sfo.lft.to/lastmile_qr_scan"},"is_disabled":0,"lat":37.305022666666666,"is_reserved":0,"name":"897ed761f82a5e101f5085db9f99c4d1","bike_id":"897ed761f82a5e101f5085db9f99c4d1","type":"electric_bike"},{"lon":-121.90422516666666,"rental_uris":{"android":"https://sfo.lft.to/lastmile_qr_scan","ios":"https://sfo.lft.to/lastmile_qr_scan"},"is_disabled":0,"lat":37.322737833333335,"is_reserved":0,"name":"409775d57b919f9764f781b1074d09c7","bike_id":"409775d57b919f9764f781b1074d09c7","type":"electric_bike"},{"lon":-121.8594135,"rental_uris":{"android":"https://sfo.lft.to/lastmile_qr_scan","ios":"https://sfo.lft.to/lastmile_qr_scan"},"is_disabled":0,"lat":37.344683,"is_reserved":0,"name":"d0cd0ec97b0f111c4f90df2c3f55d301","bike_id":"d0cd0ec97b0f111c4f90df2c3f55d301","type":"electric_bike"},{"lon":-121.89081866666666,"rental_uris":{"android":"https://sfo.lft.to/lastmile_qr_scan","ios":"https://sfo.lft.to/lastmile_qr_scan"},"is_disabled":0,"lat":37.33795,"is_reserved":0,"name":"e95249c80011b127743a2a05732df0ad","bike_id":"e95249c80011b127743a2a05732df0ad","type":"electric_bike"},{"lon":-121.91183533333333,"rental_uris":{"android":"https://sfo.lft.to/lastmile_qr_scan","ios":"https://sfo.lft.to/lastmile_qr_scan"},"is_disabled":0,"lat":37.360815333333335,"is_reserved":0,"name":"5b7550f07d6a76840bca90da4b755b60","bike_id":"5b7550f07d6a76840bca90da4b755b60","type":"electric_bike"},{"lon":-121.8784965,"rental_uris":{"android":"https://sfo.lft.to/lastmile_qr_scan","ios":"https://sfo.lft.to/lastmile_qr_scan"},"is_disabled":0,"lat":37.35975633333334,"is_reserved":0,"name":"a134d2197ae9f58c069bfe526a0d043b","bike_id":"a134d2197ae9f58c069bfe526a0d043b","type":"electric_bike"},{"lon":-121.89526866666667,"rental_uris":{"android":"https://sfo.lft.to/lastmile_qr_scan","ios":"https://sfo.lft.to/lastmile_qr_scan"},"is_disabled":0,"lat":37.333861666666664,"is_reserved":0,"name":"bae897048f8a239e10747c6f98efb759","bike_id":"bae897048f8a239e10747c6f98efb759","type":"electric_bike"},{"lon":-121.88727933333334,"rental_uris":{"android":"https://sfo.lft.to/lastmile_qr_scan","ios":"https://sfo.lft.to/lastmile_qr_scan"},"is_disabled":0,"lat":37.3244855,"is_reserved":0,"name":"da8bd1ebe6c12253b3488736e5ed48d8","bike_id":"da8bd1ebe6c12253b3488736e5ed48d8","type":"electric_bike"},{"lon":-121.87134333333333,"rental_uris":{"android":"https://sfo.lft.to/lastmile_qr_scan","ios":"https://sfo.lft.to/lastmile_qr_scan"},"is_disabled":0,"lat":37.346641166666664,"is_reserved":0,"name":"496dde8d816b13c3b1612f217cbc06ff","bike_id":"496dde8d816b13c3b1612f217cbc06ff","type":"electric_bike"},{"lon":-121.85490016666667,"rental_uris":{"android":"https://sfo.lft.to/lastmile_qr_scan","ios":"https://sfo.lft.to/lastmile_qr_scan"},"is_disabled":0,"lat":37.340471,"is_reserved":0,"name":"332e8d52a45b4f043ae25622324a49f5","bike_id":"332e8d52a45b4f043ae25622324a49f5","type":"electric_bike"},{"lon":-121.91073683333333,"rental_uris":{"android":"https://sfo.lft.to/lastmile_qr_scan","ios":"https://sfo.lft.to/lastmile_qr_scan"},"is_disabled":0,"lat":37.362955166666666,"is_reserved":0,"name":"d749999aab94458f775095ca2c6bd5b2","bike_id":"d749999aab94458f775095ca2c6bd5b2","type":"electric_bike"},{"lon":-121.836456,"rental_uris":{"android":"https://sfo.lft.to/lastmile_qr_scan","ios":"https://sfo.lft.to/lastmile_qr_scan"},"is_disabled":0,"lat":37.359421,"is_reserved":0,"name":"084a8609918be9d473069b898fc5c78f","bike_id":"084a8609918be9d473069b898fc5c78f","type":"electric_bike"},{"lon":-121.86783883333334,"rental_uris":{"android":"https://sfo.lft.to/lastmile_qr_scan","ios":"https://sfo.lft.to/lastmile_qr_scan"},"is_disabled":0,"lat":37.326977666666664,"is_reserved":0,"name":"a1bc585b4748fbd61406303828343ce8","bike_id":"a1bc585b4748fbd61406303828343ce8","type":"electric_bike"},{"lon":-121.90892366666667,"rental_uris":{"android":"https://sfo.lft.to/lastmile_qr_scan","ios":"https://sfo.lft.to/lastmile_qr_scan"},"is_disabled":0,"lat":37.35042633333333,"is_reserved":0,"name":"e8be98ecc8dbeb140e7f74295b7955a2","bike_id":"e8be98ecc8dbeb140e7f74295b7955a2","type":"electric_bike"},{"lon":-121.89401366666667,"rental_uris":{"android":"https://sfo.lft.to/lastmile_qr_scan","ios":"https://sfo.lft.to/lastmile_qr_scan"},"is_disabled":0,"lat":37.337050166666664,"is_reserved":0,"name":"a6f52126ac62498dd1ebf9b3d09f40a5","bike_id":"a6f52126ac62498dd1ebf9b3d09f40a5","type":"electric_bike"},{"lon":-121.88370183333333,"rental_uris":{"android":"https://sfo.lft.to/lastmile_qr_scan","ios":"https://sfo.lft.to/lastmile_qr_scan"},"is_disabled":0,"lat":37.35279333333333,"is_reserved":0,"name":"36b9adfe1aa32b2869a7d7e935b67391","bike_id":"36b9adfe1aa32b2869a7d7e935b67391","type":"electric_bike"},{"lon":-121.905119,"rental_uris":{"android":"https://sfo.lft.to/lastmile_qr_scan","ios":"https://sfo.lft.to/lastmile_qr_scan"},"is_disabled":0,"lat":37.326341666666664,"is_reserved":0,"name":"dace2aa5dcd4a1e2d052549bfca3e857","bike_id":"dace2aa5dcd4a1e2d052549bfca3e857","type":"electric_bike"},{"lon":-121.91185666666667,"rental_uris":{"android":"https://sfo.lft.to/lastmile_qr_scan","ios":"https://sfo.lft.to/lastmile_qr_scan"},"is_disabled":0,"lat":37.36075916666667,"is_reserved":0,"name":"606e9ae43da9a326eec2f20cfd4545b8","bike_id":"606e9ae43da9a326eec2f20cfd4545b8","type":"electric_bike"},{"lon":-121.90557816666667,"rental_uris":{"android":"https://sfo.lft.to/lastmile_qr_scan","ios":"https://sfo.lft.to/lastmile_qr_scan"},"is_disabled":0,"lat":37.337157166666664,"is_reserved":0,"name":"c8bb73b563422995e4deef42331a1057","bike_id":"c8bb73b563422995e4deef42331a1057","type":"electric_bike"},{"lon":-121.92292,"rental_uris":{"android":"https://sfo.lft.to/lastmile_qr_scan","ios":"https://sfo.lft.to/lastmile_qr_scan"},"is_disabled":0,"lat":37.3010645,"is_reserved":0,"name":"088a4968b81bb06f89bb6d5b3ad0e89f","bike_id":"088a4968b81bb06f89bb6d5b3ad0e89f","type":"electric_bike"},{"lon":-121.909735,"rental_uris":{"android":"https://sfo.lft.to/lastmile_qr_scan","ios":"https://sfo.lft.to/lastmile_qr_scan"},"is_disabled":0,"lat":37.3621025,"is_reserved":0,"name":"ef32973d0883c4325fb436e642fa7a92","bike_id":"ef32973d0883c4325fb436e642fa7a92","type":"electric_bike"},{"lon":-121.88248566666667,"rental_uris":{"android":"https://sfo.lft.to/lastmile_qr_scan","ios":"https://sfo.lft.to/lastmile_qr_scan"},"is_disabled":0,"lat":37.33894516666667,"is_reserved":0,"name":"7cb02c61b4ee4e7413c837fa2f41ff40","bike_id":"7cb02c61b4ee4e7413c837fa2f41ff40","type":"electric_bike"},{"lon":-121.91531933333333,"rental_uris":{"android":"https://sfo.lft.to/lastmile_qr_scan","ios":"https://sfo.lft.to/lastmile_qr_scan"},"is_disabled":0,"lat":37.3697215,"is_reserved":0,"name":"12e6499c76218a6c3277e36c27adf1d7","bike_id":"12e6499c76218a6c3277e36c27adf1d7","type":"electric_bike"},{"lon":-121.89296283333333,"rental_uris":{"android":"https://sfo.lft.to/lastmile_qr_scan","ios":"https://sfo.lft.to/lastmile_qr_scan"},"is_disabled":0,"lat":37.326501666666665,"is_reserved":0,"name":"769a5b4a25ed2bc6a169762042e3fce5","bike_id":"769a5b4a25ed2bc6a169762042e3fce5","type":"electric_bike"},{"lon":-121.860756,"rental_uris":{"android":"https://sfo.lft.to/lastmile_qr_scan","ios":"https://sfo.lft.to/lastmile_qr_scan"},"is_disabled":0,"lat":37.330356,"is_reserved":0,"name":"aaa0401804c59984a24a7513111c11b1","bike_id":"aaa0401804c59984a24a7513111c11b1","type":"electric_bike"},{"lon":-121.88486766666666,"rental_uris":{"android":"https://sfo.lft.to/lastmile_qr_scan","ios":"https://sfo.lft.to/lastmile_qr_scan"},"is_disabled":0,"lat":37.31712916666667,"is_reserved":0,"name":"f7926090d1b3ec17d5030a54b723d83a","bike_id":"f7926090d1b3ec17d5030a54b723d83a","type":"electric_bike"},{"lon":-121.85083083333333,"rental_uris":{"android":"https://sfo.lft.to/lastmile_qr_scan","ios":"https://sfo.lft.to/lastmile_qr_scan"},"is_disabled":0,"lat":37.3105595,"is_reserved":0,"name":"9faa317030f357afba43143b687fc741","bike_id":"9faa317030f357afba43143b687fc741","type":"electric_bike"},{"lon":-121.87946666666667,"rental_uris":{"android":"https://sfo.lft.to/lastmile_qr_scan","ios":"https://sfo.lft.to/lastmile_qr_scan"},"is_disabled":0,"lat":37.34407183333333,"is_reserved":0,"name":"1abca5965db6d7382f4289c42027d01d","bike_id":"1abca5965db6d7382f4289c42027d01d","type":"electric_bike"},{"lon":-121.8291575,"rental_uris":{"android":"https://sfo.lft.to/lastmile_qr_scan","ios":"https://sfo.lft.to/lastmile_qr_scan"},"is_disabled":0,"lat":37.3253615,"is_reserved":0,"name":"598a706bb8ed13e40848df02dff48efc","bike_id":"598a706bb8ed13e40848df02dff48efc","type":"electric_bike"},{"lon":-121.88472183333333,"rental_uris":{"android":"https://sfo.lft.to/lastmile_qr_scan","ios":"https://sfo.lft.to/lastmile_qr_scan"},"is_disabled":0,"lat":37.34539633333333,"is_reserved":0,"name":"dcde0cf951aed9f8c77e0a4bf9e16c04","bike_id":"dcde0cf951aed9f8c77e0a4bf9e16c04","type":"electric_bike"},{"lon":-121.89522216666667,"rental_uris":{"android":"https://sfo.lft.to/lastmile_qr_scan","ios":"https://sfo.lft.to/lastmile_qr_scan"},"is_disabled":0,"lat":37.34137033333333,"is_reserved":0,"name":"30b3957bf49de628670fb17e722a2020","bike_id":"30b3957bf49de628670fb17e722a2020","type":"electric_bike"},{"lon":-121.92838266666666,"rental_uris":{"android":"https://sfo.lft.to/lastmile_qr_scan","ios":"https://sfo.lft.to/lastmile_qr_scan"},"is_disabled":0,"lat":37.34021666666667,"is_reserved":0,"name":"aab7b4f713bfe568c0b6de914327853c","bike_id":"aab7b4f713bfe568c0b6de914327853c","type":"electric_bike"},{"lon":-121.88124,"rental_uris":{"android":"https://sfo.lft.to/lastmile_qr_scan","ios":"https://sfo.lft.to/lastmile_qr_scan"},"is_disabled":0,"lat":37.31574166666667,"is_reserved":0,"name":"f34f5acc6dca4cf8f664f113ea8986c1","bike_id":"f34f5acc6dca4cf8f664f113ea8986c1","type":"electric_bike"},{"lon":-121.89850816666667,"rental_uris":{"android":"https://sfo.lft.to/lastmile_qr_scan","ios":"https://sfo.lft.to/lastmile_qr_scan"},"is_disabled":0,"lat":37.324887333333336,"is_reserved":0,"name":"9da675154e15499c64c93a82dafdbc72","bike_id":"9da675154e15499c64c93a82dafdbc72","type":"electric_bike"},{"lon":-121.90141583333333,"rental_uris":{"android":"https://sfo.lft.to/lastmile_qr_scan","ios":"https://sfo.lft.to/lastmile_qr_scan"},"is_disabled":0,"lat":37.35865233333333,"is_reserved":0,"name":"d557a42f7ef4e98fab8ec686ff7e94f2","bike_id":"d557a42f7ef4e98fab8ec686ff7e94f2","type":"electric_bike"},{"lon":-121.95438866666667,"rental_uris":{"android":"https://sfo.lft.to/lastmile_qr_scan","ios":"https://sfo.lft.to/lastmile_qr_scan"},"is_disabled":0,"lat":37.416088333333335,"is_reserved":0,"name":"3bca0da6f4fb64c3d47e8e76ddff19c6","bike_id":"3bca0da6f4fb64c3d47e8e76ddff19c6","type":"electric_bike"},{"lon":-121.878565,"rental_uris":{"android":"https://sfo.lft.to/lastmile_qr_scan","ios":"https://sfo.lft.to/lastmile_qr_scan"},"is_disabled":0,"lat":37.33144883333333,"is_reserved":0,"name":"651953023bf8c64ad36d06402d807662","bike_id":"651953023bf8c64ad36d06402d807662","type":"electric_bike"},{"lon":-121.91729483333333,"rental_uris":{"android":"https://sfo.lft.to/lastmile_qr_scan","ios":"https://sfo.lft.to/lastmile_qr_scan"},"is_disabled":0,"lat":37.36850366666667,"is_reserved":0,"name":"9f8b60710c09d54e61076be34e756b55","bike_id":"9f8b60710c09d54e61076be34e756b55","type":"electric_bike"},{"lon":-121.91299116666667,"rental_uris":{"android":"https://sfo.lft.to/lastmile_qr_scan","ios":"https://sfo.lft.to/lastmile_qr_scan"},"is_disabled":0,"lat":37.33315183333333,"is_reserved":0,"name":"7439fb9fad2facd3f04b8d130f62f310","bike_id":"7439fb9fad2facd3f04b8d130f62f310","type":"electric_bike"},{"lon":-121.86615083333334,"rental_uris":{"android":"https://sfo.lft.to/lastmile_qr_scan","ios":"https://sfo.lft.to/lastmile_qr_scan"},"is_disabled":0,"lat":37.3005655,"is_reserved":0,"name":"c43a7be25f73c2ff4bb90f0374566a99","bike_id":"c43a7be25f73c2ff4bb90f0374566a99","type":"electric_bike"},{"lon":-121.8993985,"rental_uris":{"android":"https://sfo.lft.to/lastmile_qr_scan","ios":"https://sfo.lft.to/lastmile_qr_scan"},"is_disabled":0,"lat":37.3369605,"is_reserved":0,"name":"6db3229e7e995b53c0efd9fac3bd16e8","bike_id":"6db3229e7e995b53c0efd9fac3bd16e8","type":"electric_bike"},{"lon":-121.89530183333333,"rental_uris":{"android":"https://sfo.lft.to/lastmile_qr_scan","ios":"https://sfo.lft.to/lastmile_qr_scan"},"is_disabled":0,"lat":37.36025,"is_reserved":0,"name":"b7bc354d23e55d9f302a17217a7e3b08","bike_id":"b7bc354d23e55d9f302a17217a7e3b08","type":"electric_bike"},{"lon":-121.91729983333333,"rental_uris":{"android":"https://sfo.lft.to/lastmile_qr_scan","ios":"https://sfo.lft.to/lastmile_qr_scan"},"is_disabled":0,"lat":37.31513916666667,"is_reserved":0,"name":"c8c5f68fda144486f9c5ac0aa5937cb2","bike_id":"c8c5f68fda144486f9c5ac0aa5937cb2","type":"electric_bike"},{"lon":-121.88610433333334,"rental_uris":{"android":"https://sfo.lft.to/lastmile_qr_scan","ios":"https://sfo.lft.to/lastmile_qr_scan"},"is_disabled":0,"lat":37.349574833333335,"is_reserved":0,"name":"61bc6e51e2366ca42d615325cc21b3e3","bike_id":"61bc6e51e2366ca42d615325cc21b3e3","type":"electric_bike"},{"lon":-121.8942365,"rental_uris":{"android":"https://sfo.lft.to/lastmile_qr_scan","ios":"https://sfo.lft.to/lastmile_qr_scan"},"is_disabled":0,"lat":37.3527205,"is_reserved":0,"name":"e1836a17037449cafbbe686a353efe43","bike_id":"e1836a17037449cafbbe686a353efe43","type":"electric_bike"},{"lon":-121.87838116666667,"rental_uris":{"android":"https://sfo.lft.to/lastmile_qr_scan","ios":"https://sfo.lft.to/lastmile_qr_scan"},"is_disabled":0,"lat":37.313166833333334,"is_reserved":0,"name":"e18566722b617e4b9dd16e31158565a1","bike_id":"e18566722b617e4b9dd16e31158565a1","type":"electric_bike"},{"lon":-121.88933366666667,"rental_uris":{"android":"https://sfo.lft.to/lastmile_qr_scan","ios":"https://sfo.lft.to/lastmile_qr_scan"},"is_disabled":0,"lat":37.3539955,"is_reserved":0,"name":"c0b28b09c064a02bfca2f6c8c01aec11","bike_id":"c0b28b09c064a02bfca2f6c8c01aec11","type":"electric_bike"},{"lon":-121.884341,"rental_uris":{"android":"https://sfo.lft.to/lastmile_qr_scan","ios":"https://sfo.lft.to/lastmile_qr_scan"},"is_disabled":0,"lat":37.346894,"is_reserved":0,"name":"ce053f9f9aabf5453ae85f90d35afe9f","bike_id":"ce053f9f9aabf5453ae85f90d35afe9f","type":"electric_bike"},{"lon":-121.93132083333333,"rental_uris":{"android":"https://sfo.lft.to/lastmile_qr_scan","ios":"https://sfo.lft.to/lastmile_qr_scan"},"is_disabled":0,"lat":37.40523666666667,"is_reserved":0,"name":"fa47c299eb3de708a0ec4f31e3e190a7","bike_id":"fa47c299eb3de708a0ec4f31e3e190a7","type":"electric_bike"},{"lon":-121.8400745,"rental_uris":{"android":"https://sfo.lft.to/lastmile_qr_scan","ios":"https://sfo.lft.to/lastmile_qr_scan"},"is_disabled":0,"lat":37.354659833333336,"is_reserved":0,"name":"2754be10eb440728029d4f0a1fc136d3","bike_id":"2754be10eb440728029d4f0a1fc136d3","type":"electric_bike"},{"lon":-121.9121465,"rental_uris":{"android":"https://sfo.lft.to/lastmile_qr_scan","ios":"https://sfo.lft.to/lastmile_qr_scan"},"is_disabled":0,"lat":37.36466166666666,"is_reserved":0,"name":"6740a87a253c3f89fdd22da66f4ef0a1","bike_id":"6740a87a253c3f89fdd22da66f4ef0a1","type":"electric_bike"},{"lon":-121.8988715,"rental_uris":{"android":"https://sfo.lft.to/lastmile_qr_scan","ios":"https://sfo.lft.to/lastmile_qr_scan"},"is_disabled":0,"lat":37.341566,"is_reserved":0,"name":"46a998a9f83310db67d4cca8620cf72d","bike_id":"46a998a9f83310db67d4cca8620cf72d","type":"electric_bike"},{"lon":-121.88433483333333,"rental_uris":{"android":"https://sfo.lft.to/lastmile_qr_scan","ios":"https://sfo.lft.to/lastmile_qr_scan"},"is_disabled":0,"lat":37.346897166666665,"is_reserved":0,"name":"78763667c2dbd22059c8bdd81e627c0a","bike_id":"78763667c2dbd22059c8bdd81e627c0a","type":"electric_bike"},{"lon":-121.9048,"rental_uris":{"android":"https://sfo.lft.to/lastmile_qr_scan","ios":"https://sfo.lft.to/lastmile_qr_scan"},"is_disabled":0,"lat":37.33914383333333,"is_reserved":0,"name":"d1c1fc6bea2839a2387772b486804d43","bike_id":"d1c1fc6bea2839a2387772b486804d43","type":"electric_bike"},{"lon":-121.96318049999999,"rental_uris":{"android":"https://sfo.lft.to/lastmile_qr_scan","ios":"https://sfo.lft.to/lastmile_qr_scan"},"is_disabled":0,"lat":37.29690816666667,"is_reserved":0,"name":"8410cdb57713054f0b5265b85a03f5b7","bike_id":"8410cdb57713054f0b5265b85a03f5b7","type":"electric_bike"},{"lon":-121.8949235,"rental_uris":{"android":"https://sfo.lft.to/lastmile_qr_scan","ios":"https://sfo.lft.to/lastmile_qr_scan"},"is_disabled":0,"lat":37.3357485,"is_reserved":0,"name":"a7b8dbde13315b9c7b845bef80ac91d5","bike_id":"a7b8dbde13315b9c7b845bef80ac91d5","type":"electric_bike"},{"lon":-121.89550466666667,"rental_uris":{"android":"https://sfo.lft.to/lastmile_qr_scan","ios":"https://sfo.lft.to/lastmile_qr_scan"},"is_disabled":0,"lat":37.3657255,"is_reserved":0,"name":"55fde444e440e9ca2fa7bc03f16cd4eb","bike_id":"55fde444e440e9ca2fa7bc03f16cd4eb","type":"electric_bike"},{"lon":-121.92966333333334,"rental_uris":{"android":"https://sfo.lft.to/lastmile_qr_scan","ios":"https://sfo.lft.to/lastmile_qr_scan"},"is_disabled":0,"lat":37.3114345,"is_reserved":0,"name":"19863e50c195de3317eb2646d795698e","bike_id":"19863e50c195de3317eb2646d795698e","type":"electric_bike"},{"lon":-121.919851,"rental_uris":{"android":"https://sfo.lft.to/lastmile_qr_scan","ios":"https://sfo.lft.to/lastmile_qr_scan"},"is_disabled":0,"lat":37.37578233333333,"is_reserved":0,"name":"d3fd37874d25ce1d85c36001a3d028bc","bike_id":"d3fd37874d25ce1d85c36001a3d028bc","type":"electric_bike"},{"lon":-121.8978615,"rental_uris":{"android":"https://sfo.lft.to/lastmile_qr_scan","ios":"https://sfo.lft.to/lastmile_qr_scan"},"is_disabled":0,"lat":37.381022,"is_reserved":0,"name":"5dab66d8fc23a53870050e63ed19002b","bike_id":"5dab66d8fc23a53870050e63ed19002b","type":"electric_bike"},{"lon":-121.89965966666666,"rental_uris":{"android":"https://sfo.lft.to/lastmile_qr_scan","ios":"https://sfo.lft.to/lastmile_qr_scan"},"is_disabled":0,"lat":37.3233185,"is_reserved":0,"name":"65494893f24dabd119eaed347ccd7fa2","bike_id":"65494893f24dabd119eaed347ccd7fa2","type":"electric_bike"},{"lon":-121.91182066666667,"rental_uris":{"android":"https://sfo.lft.to/lastmile_qr_scan","ios":"https://sfo.lft.to/lastmile_qr_scan"},"is_disabled":0,"lat":37.2966155,"is_reserved":0,"name":"e91a5aa3732d68ea35c4394bd7be8472","bike_id":"e91a5aa3732d68ea35c4394bd7be8472","type":"electric_bike"},{"lon":-121.88560016666666,"rental_uris":{"android":"https://sfo.lft.to/lastmile_qr_scan","ios":"https://sfo.lft.to/lastmile_qr_scan"},"is_disabled":0,"lat":37.3412605,"is_reserved":0,"name":"7c1eca5a8780f34f93be6f1df880f47b","bike_id":"7c1eca5a8780f34f93be6f1df880f47b","type":"electric_bike"},{"lon":-121.8941395,"rental_uris":{"android":"https://sfo.lft.to/lastmile_qr_scan","ios":"https://sfo.lft.to/lastmile_qr_scan"},"is_disabled":0,"lat":37.321541833333335,"is_reserved":0,"name":"e50a6aeb7c6f3857bc989d05abbfcd18","bike_id":"e50a6aeb7c6f3857bc989d05abbfcd18","type":"electric_bike"},{"lon":-121.90145716666666,"rental_uris":{"android":"https://sfo.lft.to/lastmile_qr_scan","ios":"https://sfo.lft.to/lastmile_qr_scan"},"is_disabled":0,"lat":37.3091075,"is_reserved":0,"name":"3f7b5c20749e23ffc8315dba20d4bca6","bike_id":"3f7b5c20749e23ffc8315dba20d4bca6","type":"electric_bike"},{"lon":-121.88428816666666,"rental_uris":{"android":"https://sfo.lft.to/lastmile_qr_scan","ios":"https://sfo.lft.to/lastmile_qr_scan"},"is_disabled":0,"lat":37.34535183333333,"is_reserved":0,"name":"3800e70ec12286d93202915368e2116f","bike_id":"3800e70ec12286d93202915368e2116f","type":"electric_bike"},{"lon":-121.8957305,"rental_uris":{"android":"https://sfo.lft.to/lastmile_qr_scan","ios":"https://sfo.lft.to/lastmile_qr_scan"},"is_disabled":0,"lat":37.3094035,"is_reserved":0,"name":"bc85a9a5cabb127ece1fc0cb256b971e","bike_id":"bc85a9a5cabb127ece1fc0cb256b971e","type":"electric_bike"},{"lon":-121.87931316666666,"rental_uris":{"android":"https://sfo.lft.to/lastmile_qr_scan","ios":"https://sfo.lft.to/lastmile_qr_scan"},"is_disabled":0,"lat":37.338548333333335,"is_reserved":0,"name":"32bcca77c50322f88caf3ebd2b4a0f37","bike_id":"32bcca77c50322f88caf3ebd2b4a0f37","type":"electric_bike"},{"lon":-121.8901795,"rental_uris":{"android":"https://sfo.lft.to/lastmile_qr_scan","ios":"https://sfo.lft.to/lastmile_qr_scan"},"is_disabled":0,"lat":37.33645966666667,"is_reserved":0,"name":"0710ce930bac4b9f4bfc83b54d8aba8a","bike_id":"0710ce930bac4b9f4bfc83b54d8aba8a","type":"electric_bike"},{"lon":-121.88738783333334,"rental_uris":{"android":"https://sfo.lft.to/lastmile_qr_scan","ios":"https://sfo.lft.to/lastmile_qr_scan"},"is_disabled":0,"lat":37.34744366666666,"is_reserved":0,"name":"68fc04832f1e5c751f8249e34950b1d2","bike_id":"68fc04832f1e5c751f8249e34950b1d2","type":"electric_bike"},{"lon":-121.88485533333333,"rental_uris":{"android":"https://sfo.lft.to/lastmile_qr_scan","ios":"https://sfo.lft.to/lastmile_qr_scan"},"is_disabled":0,"lat":37.317151,"is_reserved":0,"name":"6b05b856a4617e6e1c21fc5e03ca11d9","bike_id":"6b05b856a4617e6e1c21fc5e03ca11d9","type":"electric_bike"},{"lon":-121.91858683333334,"rental_uris":{"android":"https://sfo.lft.to/lastmile_qr_scan","ios":"https://sfo.lft.to/lastmile_qr_scan"},"is_disabled":0,"lat":37.37329283333333,"is_reserved":0,"name":"64f154a9c6c56f5dfcb559e001039199","bike_id":"64f154a9c6c56f5dfcb559e001039199","type":"electric_bike"},{"lon":-121.86035516666666,"rental_uris":{"android":"https://sfo.lft.to/lastmile_qr_scan","ios":"https://sfo.lft.to/lastmile_qr_scan"},"is_disabled":0,"lat":37.33837716666667,"is_reserved":0,"name":"6d262b07b5ee956fa661588c0a3bcddf","bike_id":"6d262b07b5ee956fa661588c0a3bcddf","type":"electric_bike"},{"lon":-121.82587833333334,"rental_uris":{"android":"https://sfo.lft.to/lastmile_qr_scan","ios":"https://sfo.lft.to/lastmile_qr_scan"},"is_disabled":0,"lat":37.36308833333333,"is_reserved":0,"name":"51d0dfba8bd933073c794587bb106b5d","bike_id":"51d0dfba8bd933073c794587bb106b5d","type":"electric_bike"},{"lon":-121.875002,"rental_uris":{"android":"https://sfo.lft.to/lastmile_qr_scan","ios":"https://sfo.lft.to/lastmile_qr_scan"},"is_disabled":0,"lat":37.3411975,"is_reserved":0,"name":"cd73ca418b645fc07bb1644531238e5b","bike_id":"cd73ca418b645fc07bb1644531238e5b","type":"electric_bike"},{"lon":-121.88416,"rental_uris":{"android":"https://sfo.lft.to/lastmile_qr_scan","ios":"https://sfo.lft.to/lastmile_qr_scan"},"is_disabled":0,"lat":37.32049466666667,"is_reserved":0,"name":"516b318c7c0032b2d64210129cef3615","bike_id":"516b318c7c0032b2d64210129cef3615","type":"electric_bike"},{"lon":-121.88353233333333,"rental_uris":{"android":"https://sfo.lft.to/lastmile_qr_scan","ios":"https://sfo.lft.to/lastmile_qr_scan"},"is_disabled":0,"lat":37.3381155,"is_reserved":0,"name":"c8906d843db238888606ddccdafcf3ef","bike_id":"c8906d843db238888606ddccdafcf3ef","type":"electric_bike"},{"lon":-121.88850666666667,"rental_uris":{"android":"https://sfo.lft.to/lastmile_qr_scan","ios":"https://sfo.lft.to/lastmile_qr_scan"},"is_disabled":0,"lat":37.340876333333334,"is_reserved":0,"name":"237bd8f2a12ea2cc8e7869bc7fd01ecd","bike_id":"237bd8f2a12ea2cc8e7869bc7fd01ecd","type":"electric_bike"},{"lon":-121.88446816666666,"rental_uris":{"android":"https://sfo.lft.to/lastmile_qr_scan","ios":"https://sfo.lft.to/lastmile_qr_scan"},"is_disabled":0,"lat":37.353807833333335,"is_reserved":0,"name":"4a05c5ac5080cd43e78a9e90f68ee107","bike_id":"4a05c5ac5080cd43e78a9e90f68ee107","type":"electric_bike"},{"lon":-121.91865483333333,"rental_uris":{"android":"https://sfo.lft.to/lastmile_qr_scan","ios":"https://sfo.lft.to/lastmile_qr_scan"},"is_disabled":0,"lat":37.36808383333333,"is_reserved":0,"name":"cd93d1b51ce484b9c21b51f2dc6d7b00","bike_id":"cd93d1b51ce484b9c21b51f2dc6d7b00","type":"electric_bike"},{"lon":-121.910992,"rental_uris":{"android":"https://sfo.lft.to/lastmile_qr_scan","ios":"https://sfo.lft.to/lastmile_qr_scan"},"is_disabled":0,"lat":37.3638775,"is_reserved":0,"name":"c591454b453e78b03b022f08bd0ef6e9","bike_id":"c591454b453e78b03b022f08bd0ef6e9","type":"electric_bike"},{"lon":-121.8882795,"rental_uris":{"android":"https://sfo.lft.to/lastmile_qr_scan","ios":"https://sfo.lft.to/lastmile_qr_scan"},"is_disabled":0,"lat":37.33927383333333,"is_reserved":0,"name":"b1ad98859125276a1efa30ea9c6fb120","bike_id":"b1ad98859125276a1efa30ea9c6fb120","type":"electric_bike"},{"lon":-121.9038825,"rental_uris":{"android":"https://sfo.lft.to/lastmile_qr_scan","ios":"https://sfo.lft.to/lastmile_qr_scan"},"is_disabled":0,"lat":37.31520416666667,"is_reserved":0,"name":"933e3741c2a8273879d2305c25770fa4","bike_id":"933e3741c2a8273879d2305c25770fa4","type":"electric_bike"},{"lon":-121.82415083333333,"rental_uris":{"android":"https://sfo.lft.to/lastmile_qr_scan","ios":"https://sfo.lft.to/lastmile_qr_scan"},"is_disabled":0,"lat":37.35407383333333,"is_reserved":0,"name":"a2c3bb4a381b794fa8fefe4e94ebd23e","bike_id":"a2c3bb4a381b794fa8fefe4e94ebd23e","type":"electric_bike"},{"lon":-121.8766625,"rental_uris":{"android":"https://sfo.lft.to/lastmile_qr_scan","ios":"https://sfo.lft.to/lastmile_qr_scan"},"is_disabled":0,"lat":37.332455333333336,"is_reserved":0,"name":"3d12b9cfa2c483cc987636e7ae8e832b","bike_id":"3d12b9cfa2c483cc987636e7ae8e832b","type":"electric_bike"},{"lon":-121.86257466666666,"rental_uris":{"android":"https://sfo.lft.to/lastmile_qr_scan","ios":"https://sfo.lft.to/lastmile_qr_scan"},"is_disabled":0,"lat":37.3342385,"is_reserved":0,"name":"4104379d26b4c3c2e44169f5353d337c","bike_id":"4104379d26b4c3c2e44169f5353d337c","type":"electric_bike"},{"lon":-121.89158633333334,"rental_uris":{"android":"https://sfo.lft.to/lastmile_qr_scan","ios":"https://sfo.lft.to/lastmile_qr_scan"},"is_disabled":0,"lat":37.3356125,"is_reserved":0,"name":"e1cf8f838b2489819d0e9c0a5bb8d35c","bike_id":"e1cf8f838b2489819d0e9c0a5bb8d35c","type":"electric_bike"},{"lon":-121.88441533333334,"rental_uris":{"android":"https://sfo.lft.to/lastmile_qr_scan","ios":"https://sfo.lft.to/lastmile_qr_scan"},"is_disabled":0,"lat":37.345408,"is_reserved":0,"name":"ffb4821c5e064e9527057ca961a4e10a","bike_id":"ffb4821c5e064e9527057ca961a4e10a","type":"electric_bike"},{"lon":-121.88313183333334,"rental_uris":{"android":"https://sfo.lft.to/lastmile_qr_scan","ios":"https://sfo.lft.to/lastmile_qr_scan"},"is_disabled":0,"lat":37.345683666666666,"is_reserved":0,"name":"fe3826756bf8d71b9930a82482765d44","bike_id":"fe3826756bf8d71b9930a82482765d44","type":"electric_bike"},{"lon":-121.88075166666667,"rental_uris":{"android":"https://sfo.lft.to/lastmile_qr_scan","ios":"https://sfo.lft.to/lastmile_qr_scan"},"is_disabled":0,"lat":37.32838066666667,"is_reserved":0,"name":"988d20aa54b8248f3412b989d6778881","bike_id":"988d20aa54b8248f3412b989d6778881","type":"electric_bike"},{"lon":-121.87321333333334,"rental_uris":{"android":"https://sfo.lft.to/lastmile_qr_scan","ios":"https://sfo.lft.to/lastmile_qr_scan"},"is_disabled":0,"lat":37.3184335,"is_reserved":0,"name":"6a1d4be518ec2bd290fd2d49ce59bf9b","bike_id":"6a1d4be518ec2bd290fd2d49ce59bf9b","type":"electric_bike"},{"lon":-121.8923465,"rental_uris":{"android":"https://sfo.lft.to/lastmile_qr_scan","ios":"https://sfo.lft.to/lastmile_qr_scan"},"is_disabled":0,"lat":37.34068283333333,"is_reserved":0,"name":"6e9363acc55163dd3abe84227220b2b5","bike_id":"6e9363acc55163dd3abe84227220b2b5","type":"electric_bike"},{"lon":-121.9185765,"rental_uris":{"android":"https://sfo.lft.to/lastmile_qr_scan","ios":"https://sfo.lft.to/lastmile_qr_scan"},"is_disabled":0,"lat":37.368148,"is_reserved":0,"name":"f3e594c5b006364b35b0b7462a2b0dc2","bike_id":"f3e594c5b006364b35b0b7462a2b0dc2","type":"electric_bike"},{"lon":-121.896098,"rental_uris":{"android":"https://sfo.lft.to/lastmile_qr_scan","ios":"https://sfo.lft.to/lastmile_qr_scan"},"is_disabled":0,"lat":37.38177616666667,"is_reserved":0,"name":"c8ae1d371834db8504429e35f0629eab","bike_id":"c8ae1d371834db8504429e35f0629eab","type":"electric_bike"},{"lon":-121.91746866666666,"rental_uris":{"android":"https://sfo.lft.to/lastmile_qr_scan","ios":"https://sfo.lft.to/lastmile_qr_scan"},"is_disabled":0,"lat":37.32733783333333,"is_reserved":0,"name":"cad5b7e8fadf657399f7bb448336b8a3","bike_id":"cad5b7e8fadf657399f7bb448336b8a3","type":"electric_bike"},{"lon":-121.8860965,"rental_uris":{"android":"https://sfo.lft.to/lastmile_qr_scan","ios":"https://sfo.lft.to/lastmile_qr_scan"},"is_disabled":0,"lat":37.34955166666666,"is_reserved":0,"name":"d18ad7b95982e61b85bd7d62024f8940","bike_id":"d18ad7b95982e61b85bd7d62024f8940","type":"electric_bike"},{"lon":-121.87652916666667,"rental_uris":{"android":"https://sfo.lft.to/lastmile_qr_scan","ios":"https://sfo.lft.to/lastmile_qr_scan"},"is_disabled":0,"lat":37.32635116666667,"is_reserved":0,"name":"61c87db64961ee163e750fa4252e458b","bike_id":"61c87db64961ee163e750fa4252e458b","type":"electric_bike"},{"lon":-121.91275716666667,"rental_uris":{"android":"https://sfo.lft.to/lastmile_qr_scan","ios":"https://sfo.lft.to/lastmile_qr_scan"},"is_disabled":0,"lat":37.336055,"is_reserved":0,"name":"0ddca7666bdc960e13dff4a2982de7b1","bike_id":"0ddca7666bdc960e13dff4a2982de7b1","type":"electric_bike"},{"lon":-121.89448266666666,"rental_uris":{"android":"https://sfo.lft.to/lastmile_qr_scan","ios":"https://sfo.lft.to/lastmile_qr_scan"},"is_disabled":0,"lat":37.34038283333334,"is_reserved":0,"name":"193c9d4e29e3f68a58cd8a349592e60f","bike_id":"193c9d4e29e3f68a58cd8a349592e60f","type":"electric_bike"},{"lon":-121.88438733333334,"rental_uris":{"android":"https://sfo.lft.to/lastmile_qr_scan","ios":"https://sfo.lft.to/lastmile_qr_scan"},"is_disabled":0,"lat":37.34693583333333,"is_reserved":0,"name":"53e485cf45677710bb10af2f56fb1e7c","bike_id":"53e485cf45677710bb10af2f56fb1e7c","type":"electric_bike"},{"lon":-121.8434105,"rental_uris":{"android":"https://sfo.lft.to/lastmile_qr_scan","ios":"https://sfo.lft.to/lastmile_qr_scan"},"is_disabled":0,"lat":37.286272,"is_reserved":0,"name":"7f7f933d74b501d414bd2a8eea43d19b","bike_id":"7f7f933d74b501d414bd2a8eea43d19b","type":"electric_bike"},{"lon":-121.88623516666667,"rental_uris":{"android":"https://sfo.lft.to/lastmile_qr_scan","ios":"https://sfo.lft.to/lastmile_qr_scan"},"is_disabled":0,"lat":37.33807616666667,"is_reserved":0,"name":"f9e240da3d7e7710263621a9c4d73f0b","bike_id":"f9e240da3d7e7710263621a9c4d73f0b","type":"electric_bike"},{"lon":-121.88780583333333,"rental_uris":{"android":"https://sfo.lft.to/lastmile_qr_scan","ios":"https://sfo.lft.to/lastmile_qr_scan"},"is_disabled":0,"lat":37.336094333333335,"is_reserved":0,"name":"49bf787d097519fad1b7db5721166205","bike_id":"49bf787d097519fad1b7db5721166205","type":"electric_bike"},{"lon":-121.888436,"rental_uris":{"android":"https://sfo.lft.to/lastmile_qr_scan","ios":"https://sfo.lft.to/lastmile_qr_scan"},"is_disabled":0,"lat":37.346906833333335,"is_reserved":0,"name":"7668329803b043dfddcf599fdaafbabf","bike_id":"7668329803b043dfddcf599fdaafbabf","type":"electric_bike"},{"lon":-121.84846483333334,"rental_uris":{"android":"https://sfo.lft.to/lastmile_qr_scan","ios":"https://sfo.lft.to/lastmile_qr_scan"},"is_disabled":0,"lat":37.345686,"is_reserved":0,"name":"75ff284188439555376bd7c4d6309190","bike_id":"75ff284188439555376bd7c4d6309190","type":"electric_bike"},{"lon":-121.91028133333333,"rental_uris":{"android":"https://sfo.lft.to/lastmile_qr_scan","ios":"https://sfo.lft.to/lastmile_qr_scan"},"is_disabled":0,"lat":37.364175833333334,"is_reserved":0,"name":"d9ad6725435d26bc6332eddf756e4d49","bike_id":"d9ad6725435d26bc6332eddf756e4d49","type":"electric_bike"},{"lon":-121.894874,"rental_uris":{"android":"https://sfo.lft.to/lastmile_qr_scan","ios":"https://sfo.lft.to/lastmile_qr_scan"},"is_disabled":0,"lat":37.3429575,"is_reserved":0,"name":"5473a06f4dae8eea4db1a8b1694b2017","bike_id":"5473a06f4dae8eea4db1a8b1694b2017","type":"electric_bike"},{"lon":-121.876522,"rental_uris":{"android":"https://sfo.lft.to/lastmile_qr_scan","ios":"https://sfo.lft.to/lastmile_qr_scan"},"is_disabled":0,"lat":37.32638516666667,"is_reserved":0,"name":"14218f6f4b40bfa3fd04dd6d79ef6207","bike_id":"14218f6f4b40bfa3fd04dd6d79ef6207","type":"electric_bike"},{"lon":-121.8898755,"rental_uris":{"android":"https://sfo.lft.to/lastmile_qr_scan","ios":"https://sfo.lft.to/lastmile_qr_scan"},"is_disabled":0,"lat":37.34360916666667,"is_reserved":0,"name":"10ad77ac16769ac0fb215bed20a10d0d","bike_id":"10ad77ac16769ac0fb215bed20a10d0d","type":"electric_bike"},{"lon":-121.884441,"rental_uris":{"android":"https://sfo.lft.to/lastmile_qr_scan","ios":"https://sfo.lft.to/lastmile_qr_scan"},"is_disabled":0,"lat":37.345415333333335,"is_reserved":0,"name":"94f889cdd691ef095b5b58697b2922c5","bike_id":"94f889cdd691ef095b5b58697b2922c5","type":"electric_bike"},{"lon":-121.925116,"rental_uris":{"android":"https://sfo.lft.to/lastmile_qr_scan","ios":"https://sfo.lft.to/lastmile_qr_scan"},"is_disabled":0,"lat":37.3975935,"is_reserved":0,"name":"bdd53eede8743954c74f8111344feb49","bike_id":"bdd53eede8743954c74f8111344feb49","type":"electric_bike"},{"lon":-121.91118266666666,"rental_uris":{"android":"https://sfo.lft.to/lastmile_qr_scan","ios":"https://sfo.lft.to/lastmile_qr_scan"},"is_disabled":0,"lat":37.293824666666666,"is_reserved":0,"name":"bae1a36e388f5610a1ae8e615d012d87","bike_id":"bae1a36e388f5610a1ae8e615d012d87","type":"electric_bike"},{"lon":-121.88700233333333,"rental_uris":{"android":"https://sfo.lft.to/lastmile_qr_scan","ios":"https://sfo.lft.to/lastmile_qr_scan"},"is_disabled":0,"lat":37.32359566666667,"is_reserved":0,"name":"f5c2e9acebbb9aa0d7af75902597a7ce","bike_id":"f5c2e9acebbb9aa0d7af75902597a7ce","type":"electric_bike"},{"lon":-121.854848,"rental_uris":{"android":"https://sfo.lft.to/lastmile_qr_scan","ios":"https://sfo.lft.to/lastmile_qr_scan"},"is_disabled":0,"lat":37.345944,"is_reserved":0,"name":"787f0c41c3ad1b912e2b1ef2592a5b3e","bike_id":"787f0c41c3ad1b912e2b1ef2592a5b3e","type":"electric_bike"},{"lon":-121.92680366666667,"rental_uris":{"android":"https://sfo.lft.to/lastmile_qr_scan","ios":"https://sfo.lft.to/lastmile_qr_scan"},"is_disabled":0,"lat":37.30748116666667,"is_reserved":0,"name":"6a1e09893e644a4703d670e42bb6003b","bike_id":"6a1e09893e644a4703d670e42bb6003b","type":"electric_bike"},{"lon":-121.8972875,"rental_uris":{"android":"https://sfo.lft.to/lastmile_qr_scan","ios":"https://sfo.lft.to/lastmile_qr_scan"},"is_disabled":0,"lat":37.332358,"is_reserved":0,"name":"153f675656af32aa2ad41d0f7502565b","bike_id":"153f675656af32aa2ad41d0f7502565b","type":"electric_bike"},{"lon":-121.87735733333334,"rental_uris":{"android":"https://sfo.lft.to/lastmile_qr_scan","ios":"https://sfo.lft.to/lastmile_qr_scan"},"is_disabled":0,"lat":37.310631666666666,"is_reserved":0,"name":"7e580248912affd0526ce6e03a496d5d","bike_id":"7e580248912affd0526ce6e03a496d5d","type":"electric_bike"},{"lon":-121.880105,"rental_uris":{"android":"https://sfo.lft.to/lastmile_qr_scan","ios":"https://sfo.lft.to/lastmile_qr_scan"},"is_disabled":0,"lat":37.33289766666667,"is_reserved":0,"name":"eaf1b8ddd9f4cba68b7f9d33a543d658","bike_id":"eaf1b8ddd9f4cba68b7f9d33a543d658","type":"electric_bike"},{"lon":-121.8778165,"rental_uris":{"android":"https://sfo.lft.to/lastmile_qr_scan","ios":"https://sfo.lft.to/lastmile_qr_scan"},"is_disabled":0,"lat":37.333986333333335,"is_reserved":0,"name":"d99c7f9ccb3948efbe617bc5e51da9be","bike_id":"d99c7f9ccb3948efbe617bc5e51da9be","type":"electric_bike"},{"lon":-121.95519333333333,"rental_uris":{"android":"https://sfo.lft.to/lastmile_qr_scan","ios":"https://sfo.lft.to/lastmile_qr_scan"},"is_disabled":0,"lat":37.413436833333336,"is_reserved":0,"name":"a849c242c31a0921a8b85ffc5c273222","bike_id":"a849c242c31a0921a8b85ffc5c273222","type":"electric_bike"},{"lon":-121.82544216666666,"rental_uris":{"android":"https://sfo.lft.to/lastmile_qr_scan","ios":"https://sfo.lft.to/lastmile_qr_scan"},"is_disabled":0,"lat":37.324461666666664,"is_reserved":0,"name":"9bb601fba9d1b709748fe637dc445867","bike_id":"9bb601fba9d1b709748fe637dc445867","type":"electric_bike"},{"lon":-121.8957035,"rental_uris":{"android":"https://sfo.lft.to/lastmile_qr_scan","ios":"https://sfo.lft.to/lastmile_qr_scan"},"is_disabled":0,"lat":37.344818833333335,"is_reserved":0,"name":"750b9006510ba58716a9ee8e502a56fb","bike_id":"750b9006510ba58716a9ee8e502a56fb","type":"electric_bike"},{"lon":-121.860088,"rental_uris":{"android":"https://sfo.lft.to/lastmile_qr_scan","ios":"https://sfo.lft.to/lastmile_qr_scan"},"is_disabled":0,"lat":37.34289616666667,"is_reserved":0,"name":"4bb6a9e9b66b165b5371291a115e4d43","bike_id":"4bb6a9e9b66b165b5371291a115e4d43","type":"electric_bike"},{"lon":-121.86528616666666,"rental_uris":{"android":"https://sfo.lft.to/lastmile_qr_scan","ios":"https://sfo.lft.to/lastmile_qr_scan"},"is_disabled":0,"lat":37.348517333333334,"is_reserved":0,"name":"ee84a50b5068e3e6e0a77d907e947ba5","bike_id":"ee84a50b5068e3e6e0a77d907e947ba5","type":"electric_bike"},{"lon":-121.905555,"rental_uris":{"android":"https://sfo.lft.to/lastmile_qr_scan","ios":"https://sfo.lft.to/lastmile_qr_scan"},"is_disabled":0,"lat":37.35643983333333,"is_reserved":0,"name":"f996f279b7cabc7fc40ccd8f3a56ef47","bike_id":"f996f279b7cabc7fc40ccd8f3a56ef47","type":"electric_bike"},{"lon":-121.87648866666666,"rental_uris":{"android":"https://sfo.lft.to/lastmile_qr_scan","ios":"https://sfo.lft.to/lastmile_qr_scan"},"is_disabled":0,"lat":37.336778833333334,"is_reserved":0,"name":"29ebfa9bd60a0f7ad7f8ed6d9ffae87a","bike_id":"29ebfa9bd60a0f7ad7f8ed6d9ffae87a","type":"electric_bike"},{"lon":-121.91271466666667,"rental_uris":{"android":"https://sfo.lft.to/lastmile_qr_scan","ios":"https://sfo.lft.to/lastmile_qr_scan"},"is_disabled":0,"lat":37.335875333333334,"is_reserved":0,"name":"b372a6e2341abb755591365fca51ae8c","bike_id":"b372a6e2341abb755591365fca51ae8c","type":"electric_bike"},{"lon":-121.89223083333333,"rental_uris":{"android":"https://sfo.lft.to/lastmile_qr_scan","ios":"https://sfo.lft.to/lastmile_qr_scan"},"is_disabled":0,"lat":37.335609,"is_reserved":0,"name":"7d4338f494be7bff3b34fe64c215f9ac","bike_id":"7d4338f494be7bff3b34fe64c215f9ac","type":"electric_bike"},{"lon":-121.90472816666667,"rental_uris":{"android":"https://sfo.lft.to/lastmile_qr_scan","ios":"https://sfo.lft.to/lastmile_qr_scan"},"is_disabled":0,"lat":37.3144725,"is_reserved":0,"name":"e425ee63ccb21ad5d6642961286f4901","bike_id":"e425ee63ccb21ad5d6642961286f4901","type":"electric_bike"},{"lon":-121.8660025,"rental_uris":{"android":"https://sfo.lft.to/lastmile_qr_scan","ios":"https://sfo.lft.to/lastmile_qr_scan"},"is_disabled":0,"lat":37.347769166666666,"is_reserved":0,"name":"522ccbfb17131169887fcc50ac20c14a","bike_id":"522ccbfb17131169887fcc50ac20c14a","type":"electric_bike"},{"lon":-121.88905766666667,"rental_uris":{"android":"https://sfo.lft.to/lastmile_qr_scan","ios":"https://sfo.lft.to/lastmile_qr_scan"},"is_disabled":0,"lat":37.33706,"is_reserved":0,"name":"5984f98066b32177d0a19c48ea84462d","bike_id":"5984f98066b32177d0a19c48ea84462d","type":"electric_bike"},{"lon":-121.92444766666667,"rental_uris":{"android":"https://sfo.lft.to/lastmile_qr_scan","ios":"https://sfo.lft.to/lastmile_qr_scan"},"is_disabled":0,"lat":37.3414485,"is_reserved":0,"name":"81a58032e4fb319d1a58542b449c1059","bike_id":"81a58032e4fb319d1a58542b449c1059","type":"electric_bike"},{"lon":-121.89307083333334,"rental_uris":{"android":"https://sfo.lft.to/lastmile_qr_scan","ios":"https://sfo.lft.to/lastmile_qr_scan"},"is_disabled":0,"lat":37.3551035,"is_reserved":0,"name":"d18a32bea421418182fe858cd3e7335d","bike_id":"d18a32bea421418182fe858cd3e7335d","type":"electric_bike"},{"lon":-121.89274533333334,"rental_uris":{"android":"https://sfo.lft.to/lastmile_qr_scan","ios":"https://sfo.lft.to/lastmile_qr_scan"},"is_disabled":0,"lat":37.334678833333335,"is_reserved":0,"name":"ce728146d6c3020852313c5bae1eec75","bike_id":"ce728146d6c3020852313c5bae1eec75","type":"electric_bike"},{"lon":-121.885295,"rental_uris":{"android":"https://sfo.lft.to/lastmile_qr_scan","ios":"https://sfo.lft.to/lastmile_qr_scan"},"is_disabled":0,"lat":37.309378833333334,"is_reserved":0,"name":"413cb157be33a7ecd021e63ef5da6899","bike_id":"413cb157be33a7ecd021e63ef5da6899","type":"electric_bike"},{"lon":-121.8944285,"rental_uris":{"android":"https://sfo.lft.to/lastmile_qr_scan","ios":"https://sfo.lft.to/lastmile_qr_scan"},"is_disabled":0,"lat":37.31014566666666,"is_reserved":0,"name":"edfee27e90ab95f067682485b2edc3d4","bike_id":"edfee27e90ab95f067682485b2edc3d4","type":"electric_bike"},{"lon":-121.89400266666667,"rental_uris":{"android":"https://sfo.lft.to/lastmile_qr_scan","ios":"https://sfo.lft.to/lastmile_qr_scan"},"is_disabled":0,"lat":37.32166016666667,"is_reserved":0,"name":"6bf98882c2702abb318d3585a9ab115d","bike_id":"6bf98882c2702abb318d3585a9ab115d","type":"electric_bike"},{"lon":-121.88842616666666,"rental_uris":{"android":"https://sfo.lft.to/lastmile_qr_scan","ios":"https://sfo.lft.to/lastmile_qr_scan"},"is_disabled":0,"lat":37.3392905,"is_reserved":0,"name":"2599b8983ab28c5ce0bf56214d7e0a9c","bike_id":"2599b8983ab28c5ce0bf56214d7e0a9c","type":"electric_bike"},{"lon":-121.87597716666667,"rental_uris":{"android":"https://sfo.lft.to/lastmile_qr_scan","ios":"https://sfo.lft.to/lastmile_qr_scan"},"is_disabled":0,"lat":37.39343,"is_reserved":0,"name":"4808a0f4876d8a1b4817803f9791400f","bike_id":"4808a0f4876d8a1b4817803f9791400f","type":"electric_bike"},{"lon":-121.906578,"rental_uris":{"android":"https://sfo.lft.to/lastmile_qr_scan","ios":"https://sfo.lft.to/lastmile_qr_scan"},"is_disabled":0,"lat":37.360882833333335,"is_reserved":0,"name":"f6a0e5913b4708973c9e0c34466c85c7","bike_id":"f6a0e5913b4708973c9e0c34466c85c7","type":"electric_bike"},{"lon":-121.91340833333334,"rental_uris":{"android":"https://sfo.lft.to/lastmile_qr_scan","ios":"https://sfo.lft.to/lastmile_qr_scan"},"is_disabled":0,"lat":37.36629666666666,"is_reserved":0,"name":"1d495a1e0aaf3055e5116fd8b89c9d93","bike_id":"1d495a1e0aaf3055e5116fd8b89c9d93","type":"electric_bike"},{"lon":-121.90245016666667,"rental_uris":{"android":"https://sfo.lft.to/lastmile_qr_scan","ios":"https://sfo.lft.to/lastmile_qr_scan"},"is_disabled":0,"lat":37.3301615,"is_reserved":0,"name":"135202e0a6888f855defc2e5d78db7d2","bike_id":"135202e0a6888f855defc2e5d78db7d2","type":"electric_bike"},{"lon":-121.9307925,"rental_uris":{"android":"https://sfo.lft.to/lastmile_qr_scan","ios":"https://sfo.lft.to/lastmile_qr_scan"},"is_disabled":0,"lat":37.327709666666664,"is_reserved":0,"name":"215c85cbf3863e58e29b071cbbe51561","bike_id":"215c85cbf3863e58e29b071cbbe51561","type":"electric_bike"},{"lon":-121.930903,"rental_uris":{"android":"https://sfo.lft.to/lastmile_qr_scan","ios":"https://sfo.lft.to/lastmile_qr_scan"},"is_disabled":0,"lat":37.2945225,"is_reserved":0,"name":"9a98737c800851f6bd8df3fff93ee9b4","bike_id":"9a98737c800851f6bd8df3fff93ee9b4","type":"electric_bike"},{"lon":-121.90441733333333,"rental_uris":{"android":"https://sfo.lft.to/lastmile_qr_scan","ios":"https://sfo.lft.to/lastmile_qr_scan"},"is_disabled":0,"lat":37.32727766666667,"is_reserved":0,"name":"02dd1b87103c7e33e2c1e96ae3c17e44","bike_id":"02dd1b87103c7e33e2c1e96ae3c17e44","type":"electric_bike"},{"lon":-121.8298555,"rental_uris":{"android":"https://sfo.lft.to/lastmile_qr_scan","ios":"https://sfo.lft.to/lastmile_qr_scan"},"is_disabled":0,"lat":37.2910955,"is_reserved":0,"name":"af805a4262fccaae6e9fc333db64bade","bike_id":"af805a4262fccaae6e9fc333db64bade","type":"electric_bike"},{"lon":-121.88607266666666,"rental_uris":{"android":"https://sfo.lft.to/lastmile_qr_scan","ios":"https://sfo.lft.to/lastmile_qr_scan"},"is_disabled":0,"lat":37.34952766666667,"is_reserved":0,"name":"da8ed2e333a962dae381bad79826d06b","bike_id":"da8ed2e333a962dae381bad79826d06b","type":"electric_bike"},{"lon":-121.8917985,"rental_uris":{"android":"https://sfo.lft.to/lastmile_qr_scan","ios":"https://sfo.lft.to/lastmile_qr_scan"},"is_disabled":0,"lat":37.341728833333335,"is_reserved":0,"name":"2553cb7bbbcf562e02f58b9ea70e0f38","bike_id":"2553cb7bbbcf562e02f58b9ea70e0f38","type":"electric_bike"},{"lon":-121.89258783333334,"rental_uris":{"android":"https://sfo.lft.to/lastmile_qr_scan","ios":"https://sfo.lft.to/lastmile_qr_scan"},"is_disabled":0,"lat":37.364195,"is_reserved":0,"name":"983e874bb079eabfe2bec81e61c4550d","bike_id":"983e874bb079eabfe2bec81e61c4550d","type":"electric_bike"},{"lon":-121.86300283333334,"rental_uris":{"android":"https://sfo.lft.to/lastmile_qr_scan","ios":"https://sfo.lft.to/lastmile_qr_scan"},"is_disabled":0,"lat":37.311848833333336,"is_reserved":0,"name":"01238064c36f51d963af520e8960c2ee","bike_id":"01238064c36f51d963af520e8960c2ee","type":"electric_bike"},{"lon":-121.87743816666666,"rental_uris":{"android":"https://sfo.lft.to/lastmile_qr_scan","ios":"https://sfo.lft.to/lastmile_qr_scan"},"is_disabled":0,"lat":37.342814,"is_reserved":0,"name":"44b51802bf8626682e3bb180226466d7","bike_id":"44b51802bf8626682e3bb180226466d7","type":"electric_bike"},{"lon":-121.81226983333333,"rental_uris":{"android":"https://sfo.lft.to/lastmile_qr_scan","ios":"https://sfo.lft.to/lastmile_qr_scan"},"is_disabled":0,"lat":37.3057235,"is_reserved":0,"name":"fe80e3667337a06b66508d139ad056af","bike_id":"fe80e3667337a06b66508d139ad056af","type":"electric_bike"},{"lon":-121.91399016666666,"rental_uris":{"android":"https://sfo.lft.to/lastmile_qr_scan","ios":"https://sfo.lft.to/lastmile_qr_scan"},"is_disabled":0,"lat":37.36616983333333,"is_reserved":0,"name":"237ec82843c9869cf1d8bc1d89cac48e","bike_id":"237ec82843c9869cf1d8bc1d89cac48e","type":"electric_bike"},{"lon":-121.8860365,"rental_uris":{"android":"https://sfo.lft.to/lastmile_qr_scan","ios":"https://sfo.lft.to/lastmile_qr_scan"},"is_disabled":0,"lat":37.35766516666666,"is_reserved":0,"name":"9b54943277ea54b98cbc5a353895b2d1","bike_id":"9b54943277ea54b98cbc5a353895b2d1","type":"electric_bike"},{"lon":-121.92147933333334,"rental_uris":{"android":"https://sfo.lft.to/lastmile_qr_scan","ios":"https://sfo.lft.to/lastmile_qr_scan"},"is_disabled":0,"lat":37.34036583333334,"is_reserved":0,"name":"a5ec1376e4e8e00c12e11a1c28375b66","bike_id":"a5ec1376e4e8e00c12e11a1c28375b66","type":"electric_bike"},{"lon":-121.91334266666667,"rental_uris":{"android":"https://sfo.lft.to/lastmile_qr_scan","ios":"https://sfo.lft.to/lastmile_qr_scan"},"is_disabled":0,"lat":37.3333715,"is_reserved":0,"name":"7c073510f3ed1b6f6d895b0975cbea7f","bike_id":"7c073510f3ed1b6f6d895b0975cbea7f","type":"electric_bike"},{"lon":-121.910444,"rental_uris":{"android":"https://sfo.lft.to/lastmile_qr_scan","ios":"https://sfo.lft.to/lastmile_qr_scan"},"is_disabled":0,"lat":37.364041,"is_reserved":0,"name":"ed447b9cb3d74542c42b1fe8b12a5198","bike_id":"ed447b9cb3d74542c42b1fe8b12a5198","type":"electric_bike"},{"lon":-121.81037816666667,"rental_uris":{"android":"https://sfo.lft.to/lastmile_qr_scan","ios":"https://sfo.lft.to/lastmile_qr_scan"},"is_disabled":0,"lat":37.344127,"is_reserved":0,"name":"5e4b0969656f623e3b5d851a499b75c5","bike_id":"5e4b0969656f623e3b5d851a499b75c5","type":"electric_bike"},{"lon":-121.92472383333333,"rental_uris":{"android":"https://sfo.lft.to/lastmile_qr_scan","ios":"https://sfo.lft.to/lastmile_qr_scan"},"is_disabled":0,"lat":37.339915,"is_reserved":0,"name":"e070fd5337db6b0f315b79a3adc75a83","bike_id":"e070fd5337db6b0f315b79a3adc75a83","type":"electric_bike"},{"lon":-121.89131283333333,"rental_uris":{"android":"https://sfo.lft.to/lastmile_qr_scan","ios":"https://sfo.lft.to/lastmile_qr_scan"},"is_disabled":0,"lat":37.338458,"is_reserved":0,"name":"7b2e7a3cc801f7b3eb9334b1791a93ab","bike_id":"7b2e7a3cc801f7b3eb9334b1791a93ab","type":"electric_bike"},{"lon":-121.91374616666667,"rental_uris":{"android":"https://sfo.lft.to/lastmile_qr_scan","ios":"https://sfo.lft.to/lastmile_qr_scan"},"is_disabled":0,"lat":37.36571883333333,"is_reserved":0,"name":"4f305a93a5eea6afd7b3771edc64a6ac","bike_id":"4f305a93a5eea6afd7b3771edc64a6ac","type":"electric_bike"},{"lon":-121.91161733333334,"rental_uris":{"android":"https://sfo.lft.to/lastmile_qr_scan","ios":"https://sfo.lft.to/lastmile_qr_scan"},"is_disabled":0,"lat":37.325168,"is_reserved":0,"name":"faae3185f6730109eddc7585f4e974cf","bike_id":"faae3185f6730109eddc7585f4e974cf","type":"electric_bike"},{"lon":-121.93145916666667,"rental_uris":{"android":"https://sfo.lft.to/lastmile_qr_scan","ios":"https://sfo.lft.to/lastmile_qr_scan"},"is_disabled":0,"lat":37.40475633333333,"is_reserved":0,"name":"1e8680e7388bf20ac9fd41cc43a09ef4","bike_id":"1e8680e7388bf20ac9fd41cc43a09ef4","type":"electric_bike"},{"lon":-121.87663433333333,"rental_uris":{"android":"https://sfo.lft.to/lastmile_qr_scan","ios":"https://sfo.lft.to/lastmile_qr_scan"},"is_disabled":0,"lat":37.33247183333334,"is_reserved":0,"name":"ef4145e23e105cfdf8934c7e31bdbf6d","bike_id":"ef4145e23e105cfdf8934c7e31bdbf6d","type":"electric_bike"},{"lon":-121.877984,"rental_uris":{"android":"https://sfo.lft.to/lastmile_qr_scan","ios":"https://sfo.lft.to/lastmile_qr_scan"},"is_disabled":0,"lat":37.31090833333333,"is_reserved":0,"name":"92b674be66af4c0ceefd764596418c4c","bike_id":"92b674be66af4c0ceefd764596418c4c","type":"electric_bike"},{"lon":-121.88818133333334,"rental_uris":{"android":"https://sfo.lft.to/lastmile_qr_scan","ios":"https://sfo.lft.to/lastmile_qr_scan"},"is_disabled":0,"lat":37.340489,"is_reserved":0,"name":"6cac477b9f1f669cc779642bea7197a9","bike_id":"6cac477b9f1f669cc779642bea7197a9","type":"electric_bike"},{"lon":-121.91028216666666,"rental_uris":{"android":"https://sfo.lft.to/lastmile_qr_scan","ios":"https://sfo.lft.to/lastmile_qr_scan"},"is_disabled":0,"lat":37.36412883333333,"is_reserved":0,"name":"42a804e8ca2308eb6ae48cf0a2c5355e","bike_id":"42a804e8ca2308eb6ae48cf0a2c5355e","type":"electric_bike"},{"lon":-121.88819766666667,"rental_uris":{"android":"https://sfo.lft.to/lastmile_qr_scan","ios":"https://sfo.lft.to/lastmile_qr_scan"},"is_disabled":0,"lat":37.3404995,"is_reserved":0,"name":"d967f289966a4d15c91ede631395f7db","bike_id":"d967f289966a4d15c91ede631395f7db","type":"electric_bike"},{"lon":-121.9106755,"rental_uris":{"android":"https://sfo.lft.to/lastmile_qr_scan","ios":"https://sfo.lft.to/lastmile_qr_scan"},"is_disabled":0,"lat":37.364399,"is_reserved":0,"name":"a07161c9bdde14cc32ec16086bf1a4a7","bike_id":"a07161c9bdde14cc32ec16086bf1a4a7","type":"electric_bike"},{"lon":-121.91032166666666,"rental_uris":{"android":"https://sfo.lft.to/lastmile_qr_scan","ios":"https://sfo.lft.to/lastmile_qr_scan"},"is_disabled":0,"lat":37.33772,"is_reserved":0,"name":"e42ae13ddb8bf5bf46bb453b749170fa","bike_id":"e42ae13ddb8bf5bf46bb453b749170fa","type":"electric_bike"},{"lon":-121.903573,"rental_uris":{"android":"https://sfo.lft.to/lastmile_qr_scan","ios":"https://sfo.lft.to/lastmile_qr_scan"},"is_disabled":0,"lat":37.353757,"is_reserved":0,"name":"05aab679f147a89e1e7b43ec4bbf3d5d","bike_id":"05aab679f147a89e1e7b43ec4bbf3d5d","type":"electric_bike"},{"lon":-121.87204366666667,"rental_uris":{"android":"https://sfo.lft.to/lastmile_qr_scan","ios":"https://sfo.lft.to/lastmile_qr_scan"},"is_disabled":0,"lat":37.34515716666667,"is_reserved":0,"name":"7beb0b533cd35881b428539e81c670f4","bike_id":"7beb0b533cd35881b428539e81c670f4","type":"electric_bike"},{"lon":-121.9198075,"rental_uris":{"android":"https://sfo.lft.to/lastmile_qr_scan","ios":"https://sfo.lft.to/lastmile_qr_scan"},"is_disabled":0,"lat":37.37711483333333,"is_reserved":0,"name":"2b40288d386031b3b9c133a127f83f77","bike_id":"2b40288d386031b3b9c133a127f83f77","type":"electric_bike"},{"lon":-121.87887466666666,"rental_uris":{"android":"https://sfo.lft.to/lastmile_qr_scan","ios":"https://sfo.lft.to/lastmile_qr_scan"},"is_disabled":0,"lat":37.34665016666667,"is_reserved":0,"name":"6cfebd1f0ddf85f2aa58f49cdcf339ce","bike_id":"6cfebd1f0ddf85f2aa58f49cdcf339ce","type":"electric_bike"},{"lon":-121.8758245,"rental_uris":{"android":"https://sfo.lft.to/lastmile_qr_scan","ios":"https://sfo.lft.to/lastmile_qr_scan"},"is_disabled":0,"lat":37.348889666666665,"is_reserved":0,"name":"a07864c3b97647d64d85ebeb560dfcb7","bike_id":"a07864c3b97647d64d85ebeb560dfcb7","type":"electric_bike"},{"lon":-122.411838,"rental_uris":{"android":"https://sfo.lft.to/lastmile_qr_scan","ios":"https://sfo.lft.to/lastmile_qr_scan"},"is_disabled":0,"lat":37.80116183333333,"is_reserved":0,"name":"16cb30e2b9bfafb10f4c89c981fcfd59","bike_id":"16cb30e2b9bfafb10f4c89c981fcfd59","type":"electric_bike"},{"lon":-122.48271983333333,"rental_uris":{"android":"https://sfo.lft.to/lastmile_qr_scan","ios":"https://sfo.lft.to/lastmile_qr_scan"},"is_disabled":0,"lat":37.76340666666667,"is_reserved":0,"name":"4ab260da845014ea063d7b3a22d28450","bike_id":"4ab260da845014ea063d7b3a22d28450","type":"electric_bike"},{"lon":-122.4664,"rental_uris":{"android":"https://sfo.lft.to/lastmile_qr_scan","ios":"https://sfo.lft.to/lastmile_qr_scan"},"is_disabled":0,"lat":37.765644,"is_reserved":0,"name":"ce82349b93a4211e93e519661c08517b","bike_id":"ce82349b93a4211e93e519661c08517b","type":"electric_bike"},{"lon":-122.38983616666667,"rental_uris":{"android":"https://sfo.lft.to/lastmile_qr_scan","ios":"https://sfo.lft.to/lastmile_qr_scan"},"is_disabled":0,"lat":37.73765233333334,"is_reserved":0,"name":"af1616b5e72fcaba9713f004788f22bc","bike_id":"af1616b5e72fcaba9713f004788f22bc","type":"electric_bike"},{"lon":-122.413049,"rental_uris":{"android":"https://sfo.lft.to/lastmile_qr_scan","ios":"https://sfo.lft.to/lastmile_qr_scan"},"is_disabled":0,"lat":37.763651833333334,"is_reserved":0,"name":"c4397c143fd70393a92e39feee872e05","bike_id":"c4397c143fd70393a92e39feee872e05","type":"electric_bike"},{"lon":-122.43403466666666,"rental_uris":{"android":"https://sfo.lft.to/lastmile_qr_scan","ios":"https://sfo.lft.to/lastmile_qr_scan"},"is_disabled":0,"lat":37.773464833333335,"is_reserved":0,"name":"aca782307c0732110f4e2000880a7015","bike_id":"aca782307c0732110f4e2000880a7015","type":"electric_bike"},{"lon":-122.39344116666666,"rental_uris":{"android":"https://sfo.lft.to/lastmile_qr_scan","ios":"https://sfo.lft.to/lastmile_qr_scan"},"is_disabled":0,"lat":37.72774166666667,"is_reserved":0,"name":"7ac812189de8843e4d09c36e87a77f5d","bike_id":"7ac812189de8843e4d09c36e87a77f5d","type":"electric_bike"},{"lon":-122.50910366666666,"rental_uris":{"android":"https://sfo.lft.to/lastmile_qr_scan","ios":"https://sfo.lft.to/lastmile_qr_scan"},"is_disabled":0,"lat":37.76046266666667,"is_reserved":0,"name":"8fa38ca2d6873158745882c675410649","bike_id":"8fa38ca2d6873158745882c675410649","type":"electric_bike"},{"lon":-122.47954566666667,"rental_uris":{"android":"https://sfo.lft.to/lastmile_qr_scan","ios":"https://sfo.lft.to/lastmile_qr_scan"},"is_disabled":0,"lat":37.763425833333336,"is_reserved":0,"name":"53fdac4b9dbb87d7dcb390229ca7a5f0","bike_id":"53fdac4b9dbb87d7dcb390229ca7a5f0","type":"electric_bike"},{"lon":-122.46396633333333,"rental_uris":{"android":"https://sfo.lft.to/lastmile_qr_scan","ios":"https://sfo.lft.to/lastmile_qr_scan"},"is_disabled":0,"lat":37.764282666666666,"is_reserved":0,"name":"52ee6a546aa620deb2273e3fa61ee6fb","bike_id":"52ee6a546aa620deb2273e3fa61ee6fb","type":"electric_bike"},{"lon":-122.39089516666667,"rental_uris":{"android":"https://sfo.lft.to/lastmile_qr_scan","ios":"https://sfo.lft.to/lastmile_qr_scan"},"is_disabled":0,"lat":37.76700483333333,"is_reserved":0,"name":"47213e9e8d09fbae5da2445281218f16","bike_id":"47213e9e8d09fbae5da2445281218f16","type":"electric_bike"},{"lon":-122.48384016666667,"rental_uris":{"android":"https://sfo.lft.to/lastmile_qr_scan","ios":"https://sfo.lft.to/lastmile_qr_scan"},"is_disabled":0,"lat":37.72289083333333,"is_reserved":0,"name":"7d5853b539e84cf9f55dbfa454fa066c","bike_id":"7d5853b539e84cf9f55dbfa454fa066c","type":"electric_bike"},{"lon":-122.43560783333334,"rental_uris":{"android":"https://sfo.lft.to/lastmile_qr_scan","ios":"https://sfo.lft.to/lastmile_qr_scan"},"is_disabled":0,"lat":37.72407333333334,"is_reserved":0,"name":"5236ac3f100746c160dc019f4b751ecb","bike_id":"5236ac3f100746c160dc019f4b751ecb","type":"electric_bike"},{"lon":-122.463736,"rental_uris":{"android":"https://sfo.lft.to/lastmile_qr_scan","ios":"https://sfo.lft.to/lastmile_qr_scan"},"is_disabled":0,"lat":37.7257125,"is_reserved":0,"name":"85f61451b09bd538dcc2618f9ce52252","bike_id":"85f61451b09bd538dcc2618f9ce52252","type":"electric_bike"},{"lon":-122.479669,"rental_uris":{"android":"https://sfo.lft.to/lastmile_qr_scan","ios":"https://sfo.lft.to/lastmile_qr_scan"},"is_disabled":0,"lat":37.763583833333335,"is_reserved":0,"name":"d6d3e5b05f0b91013bb06db33047fb8a","bike_id":"d6d3e5b05f0b91013bb06db33047fb8a","type":"electric_bike"},{"lon":-122.50274983333334,"rental_uris":{"android":"https://sfo.lft.to/lastmile_qr_scan","ios":"https://sfo.lft.to/lastmile_qr_scan"},"is_disabled":0,"lat":37.76147183333333,"is_reserved":0,"name":"43099ec4f306ff94537e240273fcd3c3","bike_id":"43099ec4f306ff94537e240273fcd3c3","type":"electric_bike"},{"lon":-122.44991,"rental_uris":{"android":"https://sfo.lft.to/lastmile_qr_scan","ios":"https://sfo.lft.to/lastmile_qr_scan"},"is_disabled":0,"lat":37.764815166666665,"is_reserved":0,"name":"a4f0deba63d89555e7f5caf072c64620","bike_id":"a4f0deba63d89555e7f5caf072c64620","type":"electric_bike"},{"lon":-122.4489905,"rental_uris":{"android":"https://sfo.lft.to/lastmile_qr_scan","ios":"https://sfo.lft.to/lastmile_qr_scan"},"is_disabled":0,"lat":37.734172,"is_reserved":0,"name":"fb319532f9676521094a59cf722675b1","bike_id":"fb319532f9676521094a59cf722675b1","type":"electric_bike"},{"lon":-122.447266,"rental_uris":{"android":"https://sfo.lft.to/lastmile_qr_scan","ios":"https://sfo.lft.to/lastmile_qr_scan"},"is_disabled":0,"lat":37.78118966666667,"is_reserved":0,"name":"6528bb5d29208c8c07627fafa605c50a","bike_id":"6528bb5d29208c8c07627fafa605c50a","type":"electric_bike"},{"lon":-122.40720133333333,"rental_uris":{"android":"https://sfo.lft.to/lastmile_qr_scan","ios":"https://sfo.lft.to/lastmile_qr_scan"},"is_disabled":0,"lat":37.77534083333333,"is_reserved":0,"name":"50e89366b97bd17b7a883eab2c034b37","bike_id":"50e89366b97bd17b7a883eab2c034b37","type":"electric_bike"},{"lon":-122.47566666666667,"rental_uris":{"android":"https://sfo.lft.to/lastmile_qr_scan","ios":"https://sfo.lft.to/lastmile_qr_scan"},"is_disabled":0,"lat":37.72142016666667,"is_reserved":0,"name":"02a3499d5a8a4e71ee6bb533e2da8602","bike_id":"02a3499d5a8a4e71ee6bb533e2da8602","type":"electric_bike"},{"lon":-122.49668066666666,"rental_uris":{"android":"https://sfo.lft.to/lastmile_qr_scan","ios":"https://sfo.lft.to/lastmile_qr_scan"},"is_disabled":0,"lat":37.76449083333333,"is_reserved":0,"name":"c25704c7efc51dd51f0e96a17222c6a6","bike_id":"c25704c7efc51dd51f0e96a17222c6a6","type":"electric_bike"},{"lon":-122.46646016666666,"rental_uris":{"android":"https://sfo.lft.to/lastmile_qr_scan","ios":"https://sfo.lft.to/lastmile_qr_scan"},"is_disabled":0,"lat":37.76425783333333,"is_reserved":0,"name":"c95cd1c38d49d856b1176cd475b49007","bike_id":"c95cd1c38d49d856b1176cd475b49007","type":"electric_bike"},{"lon":-122.40102533333334,"rental_uris":{"android":"https://sfo.lft.to/lastmile_qr_scan","ios":"https://sfo.lft.to/lastmile_qr_scan"},"is_disabled":0,"lat":37.790131,"is_reserved":0,"name":"534c645f2851b09b97817e68f9b1e6f8","bike_id":"534c645f2851b09b97817e68f9b1e6f8","type":"electric_bike"},{"lon":-122.413472,"rental_uris":{"android":"https://sfo.lft.to/lastmile_qr_scan","ios":"https://sfo.lft.to/lastmile_qr_scan"},"is_disabled":0,"lat":37.76853783333333,"is_reserved":0,"name":"f9913d0c47ac4c0c276eb9a5fe17815c","bike_id":"f9913d0c47ac4c0c276eb9a5fe17815c","type":"electric_bike"},{"lon":-122.42702733333333,"rental_uris":{"android":"https://sfo.lft.to/lastmile_qr_scan","ios":"https://sfo.lft.to/lastmile_qr_scan"},"is_disabled":0,"lat":37.747507,"is_reserved":0,"name":"e58af04574d9bba1fd7134d118393903","bike_id":"e58af04574d9bba1fd7134d118393903","type":"electric_bike"},{"lon":-122.38973983333334,"rental_uris":{"android":"https://sfo.lft.to/lastmile_qr_scan","ios":"https://sfo.lft.to/lastmile_qr_scan"},"is_disabled":0,"lat":37.73748366666667,"is_reserved":0,"name":"c1bd45405404bd360e03ba202d42d829","bike_id":"c1bd45405404bd360e03ba202d42d829","type":"electric_bike"},{"lon":-122.40166616666667,"rental_uris":{"android":"https://sfo.lft.to/lastmile_qr_scan","ios":"https://sfo.lft.to/lastmile_qr_scan"},"is_disabled":0,"lat":37.707638833333334,"is_reserved":0,"name":"1cd5af29990a894e20608681f0e3050e","bike_id":"1cd5af29990a894e20608681f0e3050e","type":"electric_bike"},{"lon":-122.38577266666667,"rental_uris":{"android":"https://sfo.lft.to/lastmile_qr_scan","ios":"https://sfo.lft.to/lastmile_qr_scan"},"is_disabled":0,"lat":37.739600833333334,"is_reserved":0,"name":"d0aba59576db88147f7d64180dd86ab8","bike_id":"d0aba59576db88147f7d64180dd86ab8","type":"electric_bike"},{"lon":-122.388432,"rental_uris":{"android":"https://sfo.lft.to/lastmile_qr_scan","ios":"https://sfo.lft.to/lastmile_qr_scan"},"is_disabled":0,"lat":37.785226,"is_reserved":0,"name":"33ce749e812fd385e938f512b5e1ebdf","bike_id":"33ce749e812fd385e938f512b5e1ebdf","type":"electric_bike"},{"lon":-122.509431,"rental_uris":{"android":"https://sfo.lft.to/lastmile_qr_scan","ios":"https://sfo.lft.to/lastmile_qr_scan"},"is_disabled":0,"lat":37.759749,"is_reserved":0,"name":"465bd66814faa82a4837a02b214bc7f5","bike_id":"465bd66814faa82a4837a02b214bc7f5","type":"electric_bike"},{"lon":-122.5082655,"rental_uris":{"android":"https://sfo.lft.to/lastmile_qr_scan","ios":"https://sfo.lft.to/lastmile_qr_scan"},"is_disabled":0,"lat":37.76043833333333,"is_reserved":0,"name":"c83bfc0971a547e9aba63f88637e1c99","bike_id":"c83bfc0971a547e9aba63f88637e1c99","type":"electric_bike"},{"lon":-122.49113783333334,"rental_uris":{"android":"https://sfo.lft.to/lastmile_qr_scan","ios":"https://sfo.lft.to/lastmile_qr_scan"},"is_disabled":0,"lat":37.749736,"is_reserved":0,"name":"9efabfc73e2039a5e35e8f480e75b338","bike_id":"9efabfc73e2039a5e35e8f480e75b338","type":"electric_bike"},{"lon":-122.46433516666667,"rental_uris":{"android":"https://sfo.lft.to/lastmile_qr_scan","ios":"https://sfo.lft.to/lastmile_qr_scan"},"is_disabled":0,"lat":37.7737785,"is_reserved":0,"name":"cd120301e472959ee081079f7383c368","bike_id":"cd120301e472959ee081079f7383c368","type":"electric_bike"},{"lon":-122.49783816666667,"rental_uris":{"android":"https://sfo.lft.to/lastmile_qr_scan","ios":"https://sfo.lft.to/lastmile_qr_scan"},"is_disabled":0,"lat":37.76260583333333,"is_reserved":0,"name":"748fcc50f3caffeaae97eace75cb3033","bike_id":"748fcc50f3caffeaae97eace75cb3033","type":"electric_bike"},{"lon":-122.44719433333333,"rental_uris":{"android":"https://sfo.lft.to/lastmile_qr_scan","ios":"https://sfo.lft.to/lastmile_qr_scan"},"is_disabled":0,"lat":37.7639905,"is_reserved":0,"name":"e79cbef26034f93884bf4a0f375dfb18","bike_id":"e79cbef26034f93884bf4a0f375dfb18","type":"electric_bike"},{"lon":-122.44713316666666,"rental_uris":{"android":"https://sfo.lft.to/lastmile_qr_scan","ios":"https://sfo.lft.to/lastmile_qr_scan"},"is_disabled":0,"lat":37.7984265,"is_reserved":0,"name":"ebc01b3d208edb961f549bce0d6ce335","bike_id":"ebc01b3d208edb961f549bce0d6ce335","type":"electric_bike"},{"lon":-122.48337283333333,"rental_uris":{"android":"https://sfo.lft.to/lastmile_qr_scan","ios":"https://sfo.lft.to/lastmile_qr_scan"},"is_disabled":0,"lat":37.77682316666667,"is_reserved":0,"name":"03771044565e8cd0a5bb130248fa8d08","bike_id":"03771044565e8cd0a5bb130248fa8d08","type":"electric_bike"},{"lon":-122.40471416666666,"rental_uris":{"android":"https://sfo.lft.to/lastmile_qr_scan","ios":"https://sfo.lft.to/lastmile_qr_scan"},"is_disabled":0,"lat":37.777767,"is_reserved":0,"name":"bec35fa8a7c53ffc78002c9646a1ad0f","bike_id":"bec35fa8a7c53ffc78002c9646a1ad0f","type":"electric_bike"},{"lon":-122.46144216666667,"rental_uris":{"android":"https://sfo.lft.to/lastmile_qr_scan","ios":"https://sfo.lft.to/lastmile_qr_scan"},"is_disabled":0,"lat":37.72494366666667,"is_reserved":0,"name":"8937485fea3bc3406d9ab4cdbcb5c905","bike_id":"8937485fea3bc3406d9ab4cdbcb5c905","type":"electric_bike"},{"lon":-122.40896183333334,"rental_uris":{"android":"https://sfo.lft.to/lastmile_qr_scan","ios":"https://sfo.lft.to/lastmile_qr_scan"},"is_disabled":0,"lat":37.7776665,"is_reserved":0,"name":"0c77e5262d866c2d0bff05db789e5f84","bike_id":"0c77e5262d866c2d0bff05db789e5f84","type":"electric_bike"},{"lon":-122.40602183333333,"rental_uris":{"android":"https://sfo.lft.to/lastmile_qr_scan","ios":"https://sfo.lft.to/lastmile_qr_scan"},"is_disabled":0,"lat":37.732260333333336,"is_reserved":0,"name":"c71fee6a4ad29f2d2901aee07d2e92aa","bike_id":"c71fee6a4ad29f2d2901aee07d2e92aa","type":"electric_bike"},{"lon":-122.41309483333333,"rental_uris":{"android":"https://sfo.lft.to/lastmile_qr_scan","ios":"https://sfo.lft.to/lastmile_qr_scan"},"is_disabled":0,"lat":37.7637705,"is_reserved":0,"name":"8a4f931d0e40beec388d6837e6a68b05","bike_id":"8a4f931d0e40beec388d6837e6a68b05","type":"electric_bike"},{"lon":-122.39601716666667,"rental_uris":{"android":"https://sfo.lft.to/lastmile_qr_scan","ios":"https://sfo.lft.to/lastmile_qr_scan"},"is_disabled":0,"lat":37.75838916666667,"is_reserved":0,"name":"04a5cb48c7804fee3a511af0951d05fa","bike_id":"04a5cb48c7804fee3a511af0951d05fa","type":"electric_bike"},{"lon":-122.40739883333333,"rental_uris":{"android":"https://sfo.lft.to/lastmile_qr_scan","ios":"https://sfo.lft.to/lastmile_qr_scan"},"is_disabled":0,"lat":37.71275966666666,"is_reserved":0,"name":"0082b59e795ea26a2644568d6b6d29d3","bike_id":"0082b59e795ea26a2644568d6b6d29d3","type":"electric_bike"},{"lon":-122.49432566666667,"rental_uris":{"android":"https://sfo.lft.to/lastmile_qr_scan","ios":"https://sfo.lft.to/lastmile_qr_scan"},"is_disabled":0,"lat":37.7646475,"is_reserved":0,"name":"acf79a3bbbf9a20d3076e8f8c80d286b","bike_id":"acf79a3bbbf9a20d3076e8f8c80d286b","type":"electric_bike"},{"lon":-122.3856895,"rental_uris":{"android":"https://sfo.lft.to/lastmile_qr_scan","ios":"https://sfo.lft.to/lastmile_qr_scan"},"is_disabled":0,"lat":37.74970883333334,"is_reserved":0,"name":"ab289f48d8eeaf526e692b689fb70ea4","bike_id":"ab289f48d8eeaf526e692b689fb70ea4","type":"electric_bike"},{"lon":-122.46808300000001,"rental_uris":{"android":"https://sfo.lft.to/lastmile_qr_scan","ios":"https://sfo.lft.to/lastmile_qr_scan"},"is_disabled":0,"lat":37.78663,"is_reserved":0,"name":"0cadad4884bc7eff8fdcc8abf50a5107","bike_id":"0cadad4884bc7eff8fdcc8abf50a5107","type":"electric_bike"},{"lon":-122.4536295,"rental_uris":{"android":"https://sfo.lft.to/lastmile_qr_scan","ios":"https://sfo.lft.to/lastmile_qr_scan"},"is_disabled":0,"lat":37.76987116666667,"is_reserved":0,"name":"49c379558ee1db2a04967c098b864f32","bike_id":"49c379558ee1db2a04967c098b864f32","type":"electric_bike"},{"lon":-122.40289016666667,"rental_uris":{"android":"https://sfo.lft.to/lastmile_qr_scan","ios":"https://sfo.lft.to/lastmile_qr_scan"},"is_disabled":0,"lat":37.76985533333333,"is_reserved":0,"name":"deb8fef630d29d501bf1646c93915af6","bike_id":"deb8fef630d29d501bf1646c93915af6","type":"electric_bike"},{"lon":-122.43806566666666,"rental_uris":{"android":"https://sfo.lft.to/lastmile_qr_scan","ios":"https://sfo.lft.to/lastmile_qr_scan"},"is_disabled":0,"lat":37.799746999999996,"is_reserved":0,"name":"24899a47e86aacaa79419edd90985769","bike_id":"24899a47e86aacaa79419edd90985769","type":"electric_bike"},{"lon":-122.40982116666666,"rental_uris":{"android":"https://sfo.lft.to/lastmile_qr_scan","ios":"https://sfo.lft.to/lastmile_qr_scan"},"is_disabled":0,"lat":37.729962666666665,"is_reserved":0,"name":"a5fd27634562ba6f849681aa3ccdaddf","bike_id":"a5fd27634562ba6f849681aa3ccdaddf","type":"electric_bike"},{"lon":-122.45284483333333,"rental_uris":{"android":"https://sfo.lft.to/lastmile_qr_scan","ios":"https://sfo.lft.to/lastmile_qr_scan"},"is_disabled":0,"lat":37.790915166666665,"is_reserved":0,"name":"72c8d9661ac01272fee6a685cf166258","bike_id":"72c8d9661ac01272fee6a685cf166258","type":"electric_bike"},{"lon":-122.41226966666666,"rental_uris":{"android":"https://sfo.lft.to/lastmile_qr_scan","ios":"https://sfo.lft.to/lastmile_qr_scan"},"is_disabled":0,"lat":37.711135,"is_reserved":0,"name":"df7799642cc853a683af49f5a84b8194","bike_id":"df7799642cc853a683af49f5a84b8194","type":"electric_bike"},{"lon":-122.48137266666667,"rental_uris":{"android":"https://sfo.lft.to/lastmile_qr_scan","ios":"https://sfo.lft.to/lastmile_qr_scan"},"is_disabled":0,"lat":37.763560166666664,"is_reserved":0,"name":"bc70fee7c626107f96ba5aef706ea134","bike_id":"bc70fee7c626107f96ba5aef706ea134","type":"electric_bike"},{"lon":-122.46654566666666,"rental_uris":{"android":"https://sfo.lft.to/lastmile_qr_scan","ios":"https://sfo.lft.to/lastmile_qr_scan"},"is_disabled":0,"lat":37.76538433333333,"is_reserved":0,"name":"951ef5725bbfb2264a22e56327d9c509","bike_id":"951ef5725bbfb2264a22e56327d9c509","type":"electric_bike"},{"lon":-122.42129933333334,"rental_uris":{"android":"https://sfo.lft.to/lastmile_qr_scan","ios":"https://sfo.lft.to/lastmile_qr_scan"},"is_disabled":0,"lat":37.7728945,"is_reserved":0,"name":"57e30a488da79a4af0d6ad101ae9422c","bike_id":"57e30a488da79a4af0d6ad101ae9422c","type":"electric_bike"},{"lon":-122.51078016666666,"rental_uris":{"android":"https://sfo.lft.to/lastmile_qr_scan","ios":"https://sfo.lft.to/lastmile_qr_scan"},"is_disabled":0,"lat":37.77324133333333,"is_reserved":0,"name":"da658bde8f99fbea600c86ab5fe2017b","bike_id":"da658bde8f99fbea600c86ab5fe2017b","type":"electric_bike"},{"lon":-122.44237766666667,"rental_uris":{"android":"https://sfo.lft.to/lastmile_qr_scan","ios":"https://sfo.lft.to/lastmile_qr_scan"},"is_disabled":0,"lat":37.800075666666665,"is_reserved":0,"name":"81b357487aeb67ad8b86859e283aa43e","bike_id":"81b357487aeb67ad8b86859e283aa43e","type":"electric_bike"},{"lon":-122.42530866666667,"rental_uris":{"android":"https://sfo.lft.to/lastmile_qr_scan","ios":"https://sfo.lft.to/lastmile_qr_scan"},"is_disabled":0,"lat":37.77176216666667,"is_reserved":0,"name":"85f7723ddf0fb4c3ba006162d11f8fec","bike_id":"85f7723ddf0fb4c3ba006162d11f8fec","type":"electric_bike"},{"lon":-122.50146316666667,"rental_uris":{"android":"https://sfo.lft.to/lastmile_qr_scan","ios":"https://sfo.lft.to/lastmile_qr_scan"},"is_disabled":0,"lat":37.7642795,"is_reserved":0,"name":"09e85bf2469f6d5fedc0164f10e71c06","bike_id":"09e85bf2469f6d5fedc0164f10e71c06","type":"electric_bike"},{"lon":-122.405759,"rental_uris":{"android":"https://sfo.lft.to/lastmile_qr_scan","ios":"https://sfo.lft.to/lastmile_qr_scan"},"is_disabled":0,"lat":37.7673935,"is_reserved":0,"name":"45fdee9bf060898ce96e5c94837aac73","bike_id":"45fdee9bf060898ce96e5c94837aac73","type":"electric_bike"},{"lon":-122.438974,"rental_uris":{"android":"https://sfo.lft.to/lastmile_qr_scan","ios":"https://sfo.lft.to/lastmile_qr_scan"},"is_disabled":0,"lat":37.763497,"is_reserved":0,"name":"c2d9c8878340d31bdf9115b13062b122","bike_id":"c2d9c8878340d31bdf9115b13062b122","type":"electric_bike"},{"lon":-122.38327166666667,"rental_uris":{"android":"https://sfo.lft.to/lastmile_qr_scan","ios":"https://sfo.lft.to/lastmile_qr_scan"},"is_disabled":0,"lat":37.70955,"is_reserved":0,"name":"afdb6bc501134209832bf6527e1362dc","bike_id":"afdb6bc501134209832bf6527e1362dc","type":"electric_bike"},{"lon":-122.50039616666666,"rental_uris":{"android":"https://sfo.lft.to/lastmile_qr_scan","ios":"https://sfo.lft.to/lastmile_qr_scan"},"is_disabled":0,"lat":37.775718833333336,"is_reserved":0,"name":"a2aacc31f635183cfc9e18cf8c7cf86d","bike_id":"a2aacc31f635183cfc9e18cf8c7cf86d","type":"electric_bike"},{"lon":-122.46121933333333,"rental_uris":{"android":"https://sfo.lft.to/lastmile_qr_scan","ios":"https://sfo.lft.to/lastmile_qr_scan"},"is_disabled":0,"lat":37.783916833333336,"is_reserved":0,"name":"146b0814057fcd62cd3f7420fd87e071","bike_id":"146b0814057fcd62cd3f7420fd87e071","type":"electric_bike"},{"lon":-122.49010266666667,"rental_uris":{"android":"https://sfo.lft.to/lastmile_qr_scan","ios":"https://sfo.lft.to/lastmile_qr_scan"},"is_disabled":0,"lat":37.783624833333334,"is_reserved":0,"name":"3a2c322a7508632311407ca70975b73d","bike_id":"3a2c322a7508632311407ca70975b73d","type":"electric_bike"},{"lon":-122.42780933333333,"rental_uris":{"android":"https://sfo.lft.to/lastmile_qr_scan","ios":"https://sfo.lft.to/lastmile_qr_scan"},"is_disabled":0,"lat":37.758319166666666,"is_reserved":0,"name":"1d243d6aa0043d95ad2d924d912f502f","bike_id":"1d243d6aa0043d95ad2d924d912f502f","type":"electric_bike"},{"lon":-122.4474615,"rental_uris":{"android":"https://sfo.lft.to/lastmile_qr_scan","ios":"https://sfo.lft.to/lastmile_qr_scan"},"is_disabled":0,"lat":37.72117133333333,"is_reserved":0,"name":"2664ea09f50027ad246b5c91be8ef4df","bike_id":"2664ea09f50027ad246b5c91be8ef4df","type":"electric_bike"},{"lon":-122.4781605,"rental_uris":{"android":"https://sfo.lft.to/lastmile_qr_scan","ios":"https://sfo.lft.to/lastmile_qr_scan"},"is_disabled":0,"lat":37.780535,"is_reserved":0,"name":"de0285fb7904dab1709172c69192135a","bike_id":"de0285fb7904dab1709172c69192135a","type":"electric_bike"},{"lon":-122.50948533333333,"rental_uris":{"android":"https://sfo.lft.to/lastmile_qr_scan","ios":"https://sfo.lft.to/lastmile_qr_scan"},"is_disabled":0,"lat":37.759707,"is_reserved":0,"name":"3449030a56816b638ecf344800cbc3ac","bike_id":"3449030a56816b638ecf344800cbc3ac","type":"electric_bike"},{"lon":-122.50534583333334,"rental_uris":{"android":"https://sfo.lft.to/lastmile_qr_scan","ios":"https://sfo.lft.to/lastmile_qr_scan"},"is_disabled":0,"lat":37.7352975,"is_reserved":0,"name":"95383e5529d38ae96f1efa1b92861638","bike_id":"95383e5529d38ae96f1efa1b92861638","type":"electric_bike"},{"lon":-122.44251233333334,"rental_uris":{"android":"https://sfo.lft.to/lastmile_qr_scan","ios":"https://sfo.lft.to/lastmile_qr_scan"},"is_disabled":0,"lat":37.798866333333336,"is_reserved":0,"name":"357b490768d5ebe013d762623ca75fe4","bike_id":"357b490768d5ebe013d762623ca75fe4","type":"electric_bike"},{"lon":-122.42289166666667,"rental_uris":{"android":"https://sfo.lft.to/lastmile_qr_scan","ios":"https://sfo.lft.to/lastmile_qr_scan"},"is_disabled":0,"lat":37.77786033333334,"is_reserved":0,"name":"21fa645b3a02912662c559e7e9d44acc","bike_id":"21fa645b3a02912662c559e7e9d44acc","type":"electric_bike"},{"lon":-122.44654433333334,"rental_uris":{"android":"https://sfo.lft.to/lastmile_qr_scan","ios":"https://sfo.lft.to/lastmile_qr_scan"},"is_disabled":0,"lat":37.801864,"is_reserved":0,"name":"a9052b3de7a161a9a6f68979d4a45430","bike_id":"a9052b3de7a161a9a6f68979d4a45430","type":"electric_bike"},{"lon":-122.48070433333334,"rental_uris":{"android":"https://sfo.lft.to/lastmile_qr_scan","ios":"https://sfo.lft.to/lastmile_qr_scan"},"is_disabled":0,"lat":37.76518133333333,"is_reserved":0,"name":"65e972525a2923c3d5705d228941b479","bike_id":"65e972525a2923c3d5705d228941b479","type":"electric_bike"},{"lon":-122.40704966666667,"rental_uris":{"android":"https://sfo.lft.to/lastmile_qr_scan","ios":"https://sfo.lft.to/lastmile_qr_scan"},"is_disabled":0,"lat":37.7110365,"is_reserved":0,"name":"dd6369548b4a7dbe1834f970c8ddd8e3","bike_id":"dd6369548b4a7dbe1834f970c8ddd8e3","type":"electric_bike"},{"lon":-122.437673,"rental_uris":{"android":"https://sfo.lft.to/lastmile_qr_scan","ios":"https://sfo.lft.to/lastmile_qr_scan"},"is_disabled":0,"lat":37.75486216666667,"is_reserved":0,"name":"50222850b4a2dac022eaa498c2b120e8","bike_id":"50222850b4a2dac022eaa498c2b120e8","type":"electric_bike"},{"lon":-122.39539433333333,"rental_uris":{"android":"https://sfo.lft.to/lastmile_qr_scan","ios":"https://sfo.lft.to/lastmile_qr_scan"},"is_disabled":0,"lat":37.758395,"is_reserved":0,"name":"08a4a4288b75703e310af764ee5458ba","bike_id":"08a4a4288b75703e310af764ee5458ba","type":"electric_bike"},{"lon":-122.43829133333334,"rental_uris":{"android":"https://sfo.lft.to/lastmile_qr_scan","ios":"https://sfo.lft.to/lastmile_qr_scan"},"is_disabled":0,"lat":37.800685,"is_reserved":0,"name":"90264b3bba90dd7886f990c2ee237d41","bike_id":"90264b3bba90dd7886f990c2ee237d41","type":"electric_bike"},{"lon":-122.47943533333333,"rental_uris":{"android":"https://sfo.lft.to/lastmile_qr_scan","ios":"https://sfo.lft.to/lastmile_qr_scan"},"is_disabled":0,"lat":37.76339316666667,"is_reserved":0,"name":"9129ad6fc61ed69c318107bcbfdd2b7a","bike_id":"9129ad6fc61ed69c318107bcbfdd2b7a","type":"electric_bike"},{"lon":-122.50815116666666,"rental_uris":{"android":"https://sfo.lft.to/lastmile_qr_scan","ios":"https://sfo.lft.to/lastmile_qr_scan"},"is_disabled":0,"lat":37.76049,"is_reserved":0,"name":"d53fa2ce37a05d8ea17f75c47484cbbd","bike_id":"d53fa2ce37a05d8ea17f75c47484cbbd","type":"electric_bike"},{"lon":-122.39438783333334,"rental_uris":{"android":"https://sfo.lft.to/lastmile_qr_scan","ios":"https://sfo.lft.to/lastmile_qr_scan"},"is_disabled":0,"lat":37.781075,"is_reserved":0,"name":"5868e2e7d320fcfff17b6166e1a0e298","bike_id":"5868e2e7d320fcfff17b6166e1a0e298","type":"electric_bike"},{"lon":-122.4815995,"rental_uris":{"android":"https://sfo.lft.to/lastmile_qr_scan","ios":"https://sfo.lft.to/lastmile_qr_scan"},"is_disabled":0,"lat":37.7637015,"is_reserved":0,"name":"02935778c365971f4cb6c49d08cec9c2","bike_id":"02935778c365971f4cb6c49d08cec9c2","type":"electric_bike"},{"lon":-122.404164,"rental_uris":{"android":"https://sfo.lft.to/lastmile_qr_scan","ios":"https://sfo.lft.to/lastmile_qr_scan"},"is_disabled":0,"lat":37.7848775,"is_reserved":0,"name":"778bd4fcc138341764f7e67db0f5e5db","bike_id":"778bd4fcc138341764f7e67db0f5e5db","type":"electric_bike"},{"lon":-122.39086566666667,"rental_uris":{"android":"https://sfo.lft.to/lastmile_qr_scan","ios":"https://sfo.lft.to/lastmile_qr_scan"},"is_disabled":0,"lat":37.766133833333335,"is_reserved":0,"name":"f4387dcdd82a86c073d251d40079438c","bike_id":"f4387dcdd82a86c073d251d40079438c","type":"electric_bike"},{"lon":-122.4092755,"rental_uris":{"android":"https://sfo.lft.to/lastmile_qr_scan","ios":"https://sfo.lft.to/lastmile_qr_scan"},"is_disabled":0,"lat":37.80065033333333,"is_reserved":0,"name":"8c1edd322ee70e9ddde7f61f14a91852","bike_id":"8c1edd322ee70e9ddde7f61f14a91852","type":"electric_bike"},{"lon":-122.4471265,"rental_uris":{"android":"https://sfo.lft.to/lastmile_qr_scan","ios":"https://sfo.lft.to/lastmile_qr_scan"},"is_disabled":0,"lat":37.79685533333333,"is_reserved":0,"name":"b1862b4212c9bbf102275fdf9c129d6c","bike_id":"b1862b4212c9bbf102275fdf9c129d6c","type":"electric_bike"},{"lon":-122.458939,"rental_uris":{"android":"https://sfo.lft.to/lastmile_qr_scan","ios":"https://sfo.lft.to/lastmile_qr_scan"},"is_disabled":0,"lat":37.766190333333334,"is_reserved":0,"name":"9f7fd4ae184287eedbe9087c4052202e","bike_id":"9f7fd4ae184287eedbe9087c4052202e","type":"electric_bike"},{"lon":-122.44591,"rental_uris":{"android":"https://sfo.lft.to/lastmile_qr_scan","ios":"https://sfo.lft.to/lastmile_qr_scan"},"is_disabled":0,"lat":37.710306833333334,"is_reserved":0,"name":"3bfe2172a4def0a5bbc9795a2d339fb8","bike_id":"3bfe2172a4def0a5bbc9795a2d339fb8","type":"electric_bike"},{"lon":-122.38781233333333,"rental_uris":{"android":"https://sfo.lft.to/lastmile_qr_scan","ios":"https://sfo.lft.to/lastmile_qr_scan"},"is_disabled":0,"lat":37.76151433333333,"is_reserved":0,"name":"fcf87409b912da1a18cd2bafbc37435f","bike_id":"fcf87409b912da1a18cd2bafbc37435f","type":"electric_bike"},{"lon":-122.46650816666667,"rental_uris":{"android":"https://sfo.lft.to/lastmile_qr_scan","ios":"https://sfo.lft.to/lastmile_qr_scan"},"is_disabled":0,"lat":37.76534083333333,"is_reserved":0,"name":"3f6e74e4ef3ab0714d7084977139b865","bike_id":"3f6e74e4ef3ab0714d7084977139b865","type":"electric_bike"},{"lon":-122.43547466666666,"rental_uris":{"android":"https://sfo.lft.to/lastmile_qr_scan","ios":"https://sfo.lft.to/lastmile_qr_scan"},"is_disabled":0,"lat":37.764216166666664,"is_reserved":0,"name":"075aa0e041cdcc3eaff35674d66f8c96","bike_id":"075aa0e041cdcc3eaff35674d66f8c96","type":"electric_bike"},{"lon":-122.412403,"rental_uris":{"android":"https://sfo.lft.to/lastmile_qr_scan","ios":"https://sfo.lft.to/lastmile_qr_scan"},"is_disabled":0,"lat":37.781262166666664,"is_reserved":0,"name":"80fac06bebeeaacc282fd3d19ab09b3c","bike_id":"80fac06bebeeaacc282fd3d19ab09b3c","type":"electric_bike"},{"lon":-122.46340433333333,"rental_uris":{"android":"https://sfo.lft.to/lastmile_qr_scan","ios":"https://sfo.lft.to/lastmile_qr_scan"},"is_disabled":0,"lat":37.765156833333336,"is_reserved":0,"name":"abc1e85a4c0213c50c5c140e2d211536","bike_id":"abc1e85a4c0213c50c5c140e2d211536","type":"electric_bike"},{"lon":-122.41079816666667,"rental_uris":{"android":"https://sfo.lft.to/lastmile_qr_scan","ios":"https://sfo.lft.to/lastmile_qr_scan"},"is_disabled":0,"lat":37.800463666666666,"is_reserved":0,"name":"f82b8f36c63ab49f1bd8f6a429e78d20","bike_id":"f82b8f36c63ab49f1bd8f6a429e78d20","type":"electric_bike"},{"lon":-122.4800635,"rental_uris":{"android":"https://sfo.lft.to/lastmile_qr_scan","ios":"https://sfo.lft.to/lastmile_qr_scan"},"is_disabled":0,"lat":37.76352516666667,"is_reserved":0,"name":"49bcbdf0347d2d9d3ba9aa5af6e99313","bike_id":"49bcbdf0347d2d9d3ba9aa5af6e99313","type":"electric_bike"},{"lon":-122.3905025,"rental_uris":{"android":"https://sfo.lft.to/lastmile_qr_scan","ios":"https://sfo.lft.to/lastmile_qr_scan"},"is_disabled":0,"lat":37.755295333333336,"is_reserved":0,"name":"a36957b103b0701403c0d3e2ce03ef9e","bike_id":"a36957b103b0701403c0d3e2ce03ef9e","type":"electric_bike"},{"lon":-122.48865966666666,"rental_uris":{"android":"https://sfo.lft.to/lastmile_qr_scan","ios":"https://sfo.lft.to/lastmile_qr_scan"},